Shop_ID,Shopname,Tag,Googlemap_link,District,State,State_code,Latitude,Longitude,Instagram_link,Facebook_link,Twitter_link,Tiktok_link,Whatsapp_link,Date Collected,Time Collected
callibrate,Callibrate,Early Bird,"https://www.google.com/maps/search/?api=1&query=3.1264965,101.6256189&query_place_id=ChIJHSerE6NHzDERi-a7rJz4D0o",Petaling Jaya,Selangor,10,3.1264965,101.6256189,https://www.instagram.com/calibrate.ss,,,,https://wa.me/60173708325,20-03-2024,03:36:07
the-sauh-cafe,The Sauh Cafe,Muslim Owner,"https://www.google.com/maps/search/?api=1&query=4.8843317,100.7389471&query_place_id=ChIJXdNTSOKvyjERoEE4wh2xk9E",Kamunting,Perak,8,4.8843317,100.7389471,https://www.instagram.com/thesauhcafe,https://www.facebook.com/thesauhcafe,,https://www.tiktok.com/@thesauhcafe,https://wa.me/60108154585,20-03-2024,03:36:07
what-the-puck,What the Puck,Early Bird,"https://www.google.com/maps/search/?api=1&query=3.117054,101.6136429&query_place_id=ChIJdZ5PJARPzDERr9rR5uj1Ldk",Petaling Jaya,Selangor,10,3.117054,101.6136429,https://www.instagram.com/whatthepuck.coffee,,,,https://wa.me/601116170771,20-03-2024,03:36:07
empayar-kopi,Empayar Kopi,"Muslim Owner,  Night Owl,  Stall","https://www.google.com/maps/search/?api=1&query=3.251946,101.3680887&query_place_id=ChIJH8nF4ftZzDER4NSSZ-AZgGM",Jeram,Selangor,10,3.251946,101.3680887,https://www.instagram.com/empayarkopi_,,,,https://wa.me/60192151706,20-03-2024,03:36:07
ulu-s-coffee,Ulu's Coffee,"Muslim Owner,  Night Owl","https://www.google.com/maps/search/?api=1&query=4.642598200000001,101.158069&query_place_id=ChIJLe1jNACTyjERWYXPRv-zpj4",Ulu Kinta,Perak,8,4.642598200000001,101.158069,https://www.instagram.com/3ulu.s,,,,https://wa.me/60125342469,20-03-2024,03:36:07
sechaone-coffee,Sechaone Coffee,"Muslim Owner,  Night Owl,  Home","https://www.google.com/maps/search/?api=1&query=6.438322299999999,100.1780891&query_place_id=ChIJF-bQNciZTDARUErnknBfhL8",Kangar,Perlis,9,6.438322299999999,100.1780891,https://www.instagram.com/sechaone.coffee,,,https://www.tiktok.com/@sechaone,https://wa.me/601156922537,20-03-2024,03:36:07
kusamu,Kusamu,Muslim Friendly,"https://www.google.com/maps/search/?api=1&query=4.6003237,101.1151723&query_place_id=ChIJWW5gGwDtyjERtYoWjSyvKhk",Ipoh,Perak,8,4.6003237,101.1151723,https://www.instagram.com/kusamu_,,,,https://wa.me/601118535354,20-03-2024,03:36:07
markass-kopi,Markass Kopi,"Night Owl,  Stall","https://www.google.com/maps/search/?api=1&query=3.2034399,101.4361357&query_place_id=ChIJ_z5ox7ZbzDERa1FImg34vvo",Kuala Selangor,Selangor,10,3.2034399,101.4361357,https://www.instagram.com/markass.kopi,,,https://www.tiktok.com/@markass.kopi,https://wa.me/60136869591,20-03-2024,03:36:07
sekopi-dua,Sekopi Dua,"Muslim Owner,  Stall","https://www.google.com/maps/search/?api=1&query=3.2114877,101.4365134&query_place_id=ChIJh9_ShZFbzDERPnNdodtTLRM",Klang,Selangor,10,3.2114877,101.4365134,https://www.instagram.com/sekopidua,,,,https://wa.me/60146639497,20-03-2024,03:36:07
kopi-totoq,Kopi Totoq,"Muslim Owner,  Night Owl","https://www.google.com/maps/search/?api=1&query=3.1478557,101.4304556&query_place_id=ChIJmdX_GF5XzDERNUFii-TCox4",Klang,Selangor,10,3.1478557,101.4304556,https://www.instagram.com/kopitotoq,,,,,20-03-2024,03:36:07
cxbs-coffee-matcha,CXBS Coffee & Matcha,Night Owl,"https://www.google.com/maps/search/?api=1&query=3.125636,101.4700025&query_place_id=ChIJT1W7mTxRzDERSoeHnavgYBA",Shah Alam,Selangor,10,3.125636,101.4700025,https://www.instagram.com/cxbs.coffee,,,https://www.tiktok.com/@cxbs.coffee,https://wa.me/60122662069,20-03-2024,03:36:07
akhlaken-coffee,Akhlaken Coffee,"Muslim Owner,  Night Owl,  Stall","https://www.google.com/maps/search/?api=1&query=3.1359609,101.4357474&query_place_id=ChIJOQ7hgaxTzDER85ybmq0h6Xc",Klang,Selangor,10,3.1359609,101.4357474,https://www.instagram.com/akhlakenmalaysia/,https://www.facebook.com/akhlakenmalaysia,,https://www.tiktok.com/@akhlakencoffee,,20-03-2024,03:36:07
huri-cofee,Huri Cofee,Muslim Owner,"https://www.google.com/maps/search/?api=1&query=2.837181,101.6368618&query_place_id=ChIJU7d-y-25zTERIW7hBW-PxJU",Banting,Selangor,10,2.837181,101.6368618,https://www.instagram.com/huricoffee.bukitchanggang,,,,https://wa.me/601133250855,20-03-2024,03:36:07
pavlova-cheesecake,Pavlova Cheesecake,Muslim Owner,"https://www.google.com/maps/search/?api=1&query=3.115275,101.8162865&query_place_id=ChIJ_SpNoV4xzDERajxw9hSIlxE",Hulu Langat,Selangor,10,3.115275,101.8162865,https://www.instagram.com/pavlovacheesecake,https://www.facebook.com/dapurbulatbulat,,https://www.tiktok.com/@pavlovacheesecake,https://wa.me/60133334360,20-03-2024,03:36:07
play-klang-c3-cafe,Play Klang C3 Cafe,Non Halal,"https://www.google.com/maps/search/?api=1&query=3.0420257,101.4511787&query_place_id=ChIJsTZxxzBTzDERR7xR9ifwBYE",Klang,Selangor,10,3.0420257,101.4511787,https://www.instagram.com/play_klang,https://www.facebook.com/playklang,,,https://wa.me/60193698321,20-03-2024,03:36:07
cafe-6233,Cafe 6233,Night Owl,"https://www.google.com/maps/search/?api=1&query=3.112431,101.3587378&query_place_id=ChIJn3AZqkhVzDERoBCKNipTek0",Klang,Selangor,10,3.112431,101.3587378,https://www.instagram.com/cafe_6233/?hl=en,https://www.facebook.com/cafe6233,,,https://wa.me/60176460407,20-03-2024,03:36:07
seerti-cafe-qlods,SeErti Cafe,,"https://www.google.com/maps/search/?api=1&query=5.3233622,100.2906276&query_place_id=ChIJl46EFerBSjAR0NmLFUYQr5w",Bayan Lepas,Pulau Pinang,7,5.3233622,100.2906276,https://www.instagram.com/se.erti_,,,,https://wa.me/60174759676,20-03-2024,03:36:07
lepak-backdoor,Lepak Backdoor,"Muslim Owner,  Night Owl","https://www.google.com/maps/?q=5.072120068673138,103.00979328491057",Kuala Berang,Terengganu,11,5.072120068673138,103.00979328491057,https://www.instagram.com/lepakbackdoor,,,https://www.tiktok.com/@gadgetcoffee,https://wa.me/60139328708,20-03-2024,03:36:07
sr-coffee-street-ampang,SR Coffee Street,"Muslim Owner,  Stall","https://www.google.com/maps/search/?api=1&query=3.1439057,101.741801&query_place_id=ChIJMx1HvYs2zDERYfNqQNB-FUU",Kuala Lumpur,Selangor,10,3.1439057,101.741801,https://www.instagram.com/srcoffeestreet,,,,https://wa.me/60163225903,20-03-2024,03:36:07
meet-eat-sp,Meet & Eat SP,,"https://www.google.com/maps/search/?api=1&query=5.6710607,100.5082116&query_place_id=ChIJ3SB8PuEpSzAR7dtLYBwk3qU",Sungai Petani,Kedah,2,5.6710607,100.5082116,https://www.instagram.com/meeteat.sgpetani,,,,https://wa.me/60146612926,20-03-2024,03:36:07
duson-coffee,Duson Coffee,"Muslim Owner,  Night Owl","https://www.google.com/maps/search/?api=1&query=6.035260699999999,102.3007537&query_place_id=ChIJiT_HPQC7tjERnST-rTvAjR4",Kota Bharu,Kelantan,3,6.035260699999999,102.3007537,https://www.instagram.com/dusoncoffee,,,,,20-03-2024,03:36:07
thees-coffee,Thees Coffee,"Muslim Owner,  Home","https://www.google.com/maps/search/?api=1&query=2.4430805,102.846888&query_place_id=ChIJwfZ-wfTVzzERNGs_7U8A6II",Segamat,Johor,1,2.4430805,102.846888,https://www.instagram.com/theescoffee,,,https://www.tiktok.com/theescoffee,https://wa.me/60146230402,20-03-2024,03:36:07
click-n-brew-cafe,Click N Brew Cafe,,"https://www.google.com/maps/search/?api=1&query=5.413574,100.334995&query_place_id=ChIJo8mHUTHDSjARLxJ7LIOmusY",George Town,Pulau Pinang,7,5.413574,100.334995,https://www.instagram.com/click_and_brew,,,,https://wa.me/601124157005,20-03-2024,03:36:07
hab-s-coffee,Hab's Coffee,"Muslim Owner,  Night Owl,  Stall","https://www.google.com/maps/search/?api=1&query=3.3188368,101.2695989&query_place_id=ChIJaUwXsmP1zDERykOS5YrLWcQ",Kuala Selangor,Selangor,10,3.3188368,101.2695989,https://www.instagram.com/habscoffee,,,https://www.tiktok.com/@habscoffee,https://wa.me/60176558896,20-03-2024,03:36:07
sereni-y-coffee,Sereni+y Coffee,"Muslim Owner,  Night Owl,  Home","https://www.google.com/maps/?q=3.2389858,101.463125",Bandar Puncak Alam,Selangor,10,3.2389858,101.463125,https://www.instagram.com/serenity.my_,,,https://www.tiktok.com/@serenity.my_,https://wa.me/601173099212,20-03-2024,03:36:07
overgrown-home-cafe,Overgrown Home Cafe,"Muslim Owner,  Home","https://www.google.com/maps/search/?api=1&query=3.1619969,101.7047612&query_place_id=ChIJ4_Apw5VJzDERqNkkUTKKlwM",Kuala Lumpur,Kuala Lumpur,14,3.1619969,101.7047612,https://www.instagram.com/Overgrown_homecafe,,,,https://wa.me/60166285170,20-03-2024,03:36:07
ak-haute-pausa-caffe-cafe,AK Haute Pausa Caffe Cafe,Muslim Owner,"https://www.google.com/maps/search/?api=1&query=5.5165413,100.4481386&query_place_id=ChIJ4UPfr9TRSjARDoo3Y9IKyac",Kepala Batas,Pulau Pinang,7,5.5165413,100.4481386,https://www.instagram.com/ak_hautepausacaffe,https://www.facebook.com/profile.php?id=61552651635626,,https://www.tiktok.com/@akhautepausacafe,https://wa.me/60134705188,20-03-2024,03:36:07
dumoh-coffee-31ebt,dumoh Coffee,Home,"https://www.google.com/maps/search/?api=1&query=3.5463178,103.3801027&query_place_id=ChIJQWlwHX5RzzERD7PvjeUkzGo",Pekan,Pahang,6,3.5463178,103.3801027,https://www.instagram.com/dumohcoffee,,,https://www.tiktok.com/dumohcoffee,https://wa.me/60148491915,20-03-2024,03:36:07
healing-cafe,Healing Cafe,Muslim Owner,"https://www.google.com/maps/search/?api=1&query=4.594277,101.08059&query_place_id=ChIJc_yAeljtyjERvHVAxa_fWj0",Ipoh,Perak,8,4.594277,101.08059,https://www.instagram.com/healingcafeipoh,https://www.facebook.com/LufazsCollection?mibextid=2JQ9oc,,https://www.tiktok.com/@healingcafe88,https://wa.me/60197433970,20-03-2024,03:36:07
get-a-bite-coffee,Get A Bite Coffee,"Muslim Owner,  Home","https://www.google.com/maps/search/?api=1&query=2.2606102,102.2417866&query_place_id=EjkyMiwgSmFsYW4gUGVnYWdhIDEsIFRhbWFuIE1lcmRla2EsIDc1MzUwIE1lbGFrYSwgTWFsYXlzaWEiMBIuChQKEglfs4XGuvrRMRECZZCC_9KJAxAWKhQKEgmTMu_OuvrRMRGTF_V0FS8PbA",Melaka,Melaka,4,2.2606102,102.2417866,https://www.instagram.com/getabitecoffee,https://www.facebook.com/getabitecoffee,,,https://wa.me/60176368746,20-03-2024,03:36:07
gerobok-senjaa,Gerobok Senjaa,"Muslim Owner,  Night Owl,  Home","https://www.google.com/maps/search/?api=1&query=2.794467,101.4833847&query_place_id=ChIJwVjYbwCjzTERwVFskJdjijY",Banting,Selangor,10,2.794467,101.4833847,https://www.instagram.com/gerobok.senjaa,,,https://www.tiktok.com/gerobok https://www.tiktok.com/@gerobok.senja?_t=8jvqpdEGA2U&_r=1,https://wa.me/60169029065,20-03-2024,03:36:07
yang-ni,Yang Ni,"Muslim Owner,  Home","https://www.google.com/maps/?q=3.3227954,101.5887283",Rawang,Selangor,10,3.3227954,101.5887283,https://www.instagram.com/kopiyangni,,,,https://wa.me/601112270907,20-03-2024,03:36:07
kafe-serve,Kafe SERVE,Muslim Owner,"https://www.google.com/maps/search/?api=1&query=2.9385543,101.780839&query_place_id=ChIJqa88M2fJzTERdgTcDuahARs",Bandar Baru Bangi,Selangor,10,2.9385543,101.780839,https://www.instagram.com/servebysk,,,,https://wa.me/60126857065,20-03-2024,03:36:07
toko-asad-peawj,Toko Asad,,"https://www.google.com/maps/search/?api=1&query=2.778541,101.8032861&query_place_id=ChIJxR5LVtvDzTER3_YCHLCqSJ4",Labu,Negeri Sembilan,5,2.778541,101.8032861,https://www.instagram.com/toko.asad,,,,,20-03-2024,03:36:07
bona-vista,Bona Vista,"Muslim Owner,  Home","https://www.google.com/maps/search/?api=1&query=3.0028559,101.795239&query_place_id=ChIJOyOGAcnLzTERIeAqZk4XJtU",Kajang,Selangor,10,3.0028559,101.795239,https://www.instagram.com/bonavista.coffee,,,https://www.tiktok.com/@bonavista.coffee,https://wa.me/60189619254,20-03-2024,03:36:07
kopinikasi,Kopinikasi,"Muslim Owner,  Night Owl","https://www.google.com/maps/search/?api=1&query=1.5541793,104.218741&query_place_id=ChIJe0GNI5xN2jERkbbbCxqnY2w",Bandar Penawar,Johor,1,1.5541793,104.218741,https://www.instagram.com/kopinikasi.desaru,,,,https://wa.me/60138812280,20-03-2024,03:36:07
sedikit-kopi,Sedikit Kopi,"Muslim Owner,  Night Owl","https://www.google.com/maps/search/?api=1&query=4.6843009,101.1123924&query_place_id=ChIJrVs4rEiTyjERIqPE7T7YpFo",Chemor,Perak,8,4.6843009,101.1123924,https://www.instagram.com/_sedikitkopi_,https://www.facebook.com/sedikitkopi,,https://www.tiktok.com/@_sedikitkopi_,https://wa.me/601156603077,20-03-2024,03:36:07
dan-s-coffee,Dan's Coffee,"Muslim Owner,  Night Owl,  Stall","https://www.google.com/maps/search/?api=1&query=2.7406974,101.8674861&query_place_id=ChIJdYoJg1DDzTER0j-p6qqfNG8",Seremban,Negeri Sembilan,5,2.7406974,101.8674861,https://www.instagram.com/danscoffee_,,,https://www.tiktok.com/@danscoffemy,https://wa.me/60176896636,20-03-2024,03:36:07
laman-kopi-perlis,Laman Kopi,Night Owl,"https://www.google.com/maps/search/?api=1&query=6.3970819,100.127553&query_place_id=ChIJWxzuagCbTDARzCFCzhyCTbE",Kuala Perlis,Perlis,9,6.3970819,100.127553,https://www.instagram.com/lamankopi.perlis,https://www.facebook.com/profile.php?id=61556112269623,,https://www.tiktok.com/@laman.kopi,,20-03-2024,03:36:07
yukk-coffee,Yukk Coffee,,"https://www.google.com/maps/search/?api=1&query=3.1948787,101.6228683&query_place_id=ChIJfdrcaoVHzDERejUu9pQ5fdY",Kuala Lumpur,Kuala Lumpur,14,3.1948787,101.6228683,https://www.instagram.com/yukkcoffee,,,,,20-03-2024,03:36:07
bean-good,Bean Good,Muslim Friendly,"https://www.google.com/maps/search/?api=1&query=3.066816,101.7426409&query_place_id=ChIJzSrD3AU1zDERv3Vboayzwu0",Kuala Lumpur,Kuala Lumpur,14,3.066816,101.7426409,https://www.instagram.com/beangoodkl,https://www.facebook.com/beangoodkl,,,https://wa.me/60183215119,20-03-2024,03:36:07
mizzouu-cafe,Mizzouu Cafe,Night Owl,"https://www.google.com/maps/search/?api=1&query=5.5056002,100.4278577&query_place_id=ChIJ5f5hr9HbSjAR9ve0GDv4iyc",Kepala Batas,Pulau Pinang,7,5.5056002,100.4278577,https://www.instagram.com/mizzouucafe,,,,https://wa.me/601117558990,20-03-2024,03:36:07
ceritera-coffee,Ceritera Coffee,,"https://www.google.com/maps/search/?api=1&query=6.328634099999999,99.7383789&query_place_id=ChIJiX9YUrV5TDAR2XNA5-mdI24",Langkawi,Kedah,2,6.328634099999999,99.7383789,https://www.instagram.com/ceritacoffee.my,,,,https://wa.me/601126743112,20-03-2024,03:36:07
chandella-coffee-tea-lounge,Chandella Coffee & Tea Lounge,"Muslim Friendly,  Home","https://www.google.com/maps/search/?api=1&query=5.3664258,100.4581102&query_place_id=ChIJH0W_ohzJSjARD0_1k00UKXo",Bukit Mertajam,Pulau Pinang,7,5.3664258,100.4581102,https://www.instagram.com/chandella_lounge,,,,https://wa.me/60163473232,20-03-2024,03:36:07
aprel-coffee,Aprel Coffee,Night Owl,"https://www.google.com/maps/search/?api=1&query=3.2160101,101.7044863&query_place_id=ChIJV2cPsI9HzDER20now5p7QVg",Gombak,Kuala Lumpur,14,3.2160101,101.7044863,https://www.instagram.com/aprelcoffeemy,,,,https://wa.me/601137556004,20-03-2024,03:36:07
grand-patani-cafe,Grand Patani Cafe,Muslim Owner,"https://www.google.com/maps/search/?api=1&query=3.8116958,103.3250494&query_place_id=ChIJ0SV5OAC7yDER183XRqWo4L8",Kuantan,Pahang,6,3.8116958,103.3250494,https://www.instagram.com/grandpatanicafe,,,https://www.tiktok.com/@grandpatanicafe,,20-03-2024,03:36:07
ghedde-coffee,Ghedde Coffee,,"https://www.google.com/maps/search/?api=1&query=2.8341177,101.5977315&query_place_id=ChIJ64QKRRy7zTERnUl3Ohuwdcg",Banting,Selangor,10,2.8341177,101.5977315,https://www.instagram.com/ghedde_coffee,,,,,20-03-2024,03:36:07
route-five-cafe,Route Five Cafe,,"https://www.google.com/maps/search/?api=1&query=3.3551564,101.2461772&query_place_id=ChIJ3QMU0RKNzDERfYr4ZmNSA34",Kuala Selangor,Selangor,10,3.3551564,101.2461772,https://www.instagram.com/routefivecafe,,,,https://wa.me/60193344875,20-03-2024,03:36:07
nyiur-pantai-sauh,Nyiur Pantai Sauh,,"https://www.google.com/maps/search/?api=1&query=5.4574579,103.0394605&query_place_id=ChIJB0FcLv-ltzERdJ15Hirxdw0",Kuala Terengganu,Terengganu,11,5.4574579,103.0394605,https://www.instagram.com/nyiurcafepantaisauh,,,,https://wa.me/60125097216,20-03-2024,03:36:07
hazelatte-coffee-studio,Hazelatte Coffee Studio,"Muslim Owner,  Night Owl","https://www.google.com/maps/search/?api=1&query=5.6627554,100.5069455&query_place_id=ChIJPQCZY1wpSzARHJxMZR7yh4I",Sungai Petani,Kedah,2,5.6627554,100.5069455,https://www.instagram.com/hazelattecoffeestudio,https://www.facebook.com/hazelattecoffeestudio,,,https://wa.me/601157878708,20-03-2024,03:36:07
cynta-kopi,Cynta Kopi,Night Owl,"https://www.google.com/maps/search/?api=1&query=6.4939405,100.2341985&query_place_id=ChIJOQj2OQCXTDARyL8oYK14VEs",Kangar,Perlis,9,6.4939405,100.2341985,https://www.instagram.com/cynta.kopi,,,,,20-03-2024,03:36:07
harta-space,Harta Space,,"https://www.google.com/maps/search/?api=1&query=3.1585966,101.7515167&query_place_id=ChIJYc7JdbE3zDERt1-ubhEsm6I",Ampang,Selangor,10,3.1585966,101.7515167,https://www.instagram.com/hartaspace,,,,,20-03-2024,03:36:07
marhaen-cafe,Marhaen Cafe,"Muslim Owner,  Home","https://www.google.com/maps/search/?api=1&query=2.3036952,102.2018767&query_place_id=ChIJs1OSlrb70TERrZQ8A0xfgPc",Alor Gajah,Melaka,4,2.3036952,102.2018767,,https://www.facebook.com/marhaencafe,,,https://wa.me/60136713376,20-03-2024,03:36:07
bard-brew,Bard & Brew,,"https://www.google.com/maps/search/?api=1&query=6.1306464,102.2475004&query_place_id=ChIJwVTnnyGvtjER6eTxz5mztYU",Kota Bharu,Kelantan,3,6.1306464,102.2475004,https://www.instagram.com/bardandbrew,,,,,20-03-2024,03:36:07
ruang-pokok,Ruang Pokok,Muslim Owner,"https://www.google.com/maps/search/?api=1&query=6.114668600000001,102.3040433&query_place_id=ChIJFyDKGxmxtjERJIZTRAHCjtA",Kota Bharu,Kelantan,3,6.114668600000001,102.3040433,https://www.instagram.com/ruangpokok,,,,,20-03-2024,03:36:07
beachcinity-coffee,Beachcinity Coffee,Muslim Owner,"https://www.google.com/maps/search/?api=1&query=2.8832775,112.0882051&query_place_id=ChIJm-FKDxlN9jERckbUZ0cBRf4",Mukah,Sarawak,13,2.8832775,112.0882051,https://www.instagram.com/beachcinity_coffee,https://www.facebook.com/beachcinity Coffee,,https://www.tiktok.com/@beachcinity,https://wa.me/60168602179,20-03-2024,03:36:07
duwa,Duwa,Muslim Owner,"https://www.google.com/maps/search/?api=1&query=3.2175876,101.7385198&query_place_id=ChIJ1agZgbY5zDER3hxIB42jg9k",Kuala Lumpur,Kuala Lumpur,14,3.2175876,101.7385198,https://www.instagram.com/duwa.bakestuff,,,https://www.tiktok.com/@duwabakestuff,,20-03-2024,03:36:07
flour-crown,Flour Crown,Muslim Owner,"https://www.google.com/maps/search/?api=1&query=6.2372077,100.4222823&query_place_id=ChIJuRV1ZR1ZSzARY6lFLYKotyY",Jitra,Kedah,2,6.2372077,100.4222823,https://www.instagram.com/flour.crown,,,,,20-03-2024,03:36:07
pick-a-brew-zj8br,Pick a Brew,,"https://www.google.com/maps/search/?api=1&query=5.3492127,100.4666937&query_place_id=ChIJ5bDcpznJSjARDqMCYrr9z4Q",Bukit Mertajam,Pulau Pinang,7,5.3492127,100.4666937,https://www.instagram.com/pick_a_brew_bm,,,,,20-03-2024,03:36:07
j-jafaar-cuisine,J Jafaar Cuisine,,"https://www.google.com/maps/search/?api=1&query=3.1056386,101.6049891&query_place_id=ChIJd8Uwqm1NzDERaet-2GKrRD0",Petaling Jaya,Selangor,10,3.1056386,101.6049891,https://www.instagram.com/jjafaarcuisine,,,,https://wa.me/60102779657,20-03-2024,03:36:07
wooss-pj,WOOSS,,"https://www.google.com/maps/search/?api=1&query=3.0701077,101.6930434&query_place_id=ChIJI-t9205LzDER2FofxyS-r1Q",Kuala Lumpur,Kuala Lumpur,14,3.0701077,101.6930434,https://www.instagram.com/woossofficial,,,,,20-03-2024,03:36:07
fottophy-coffee,Fottophy Coffee,"Muslim Friendly,  Night Owl,  Mobile,  Stall","https://www.google.com/maps/search/?api=1&query=3.1288892,101.5189378&query_place_id=ChIJ8x696txNzDERmC_DmAzdoqU",Shah Alam,Selangor,10,3.1288892,101.5189378,https://www.instagram.com/fottophycoffee.my,,,https://www.tiktok.com/@fottophy.My,https://wa.me/60126334901,20-03-2024,03:36:07
whoops-coffee,Whoops Coffee,"Muslim Owner,  Night Owl","https://www.google.com/maps/search/?api=1&query=3.1129127,101.7511928&query_place_id=ChIJUYgwdh03zDERkPDv6w7XC6Q",Kuala Lumpur,Kuala Lumpur,14,3.1129127,101.7511928,https://www.instagram.com/whoopscoffee,https://www.facebook.com/61555302507205,,https://www.tiktok.com/@whoopscoffeemy,https://wa.me/60142587798,20-03-2024,03:36:07
mocka,MOCKA,"Muslim Owner,  Night Owl,  Stall","https://www.google.com/maps/?q=3.0469091,101.4394013",Klang,Selangor,10,3.0469091,101.4394013,,,,https://www.tiktok.com/@pahet.manes,https://wa.me/601137162340,20-03-2024,03:36:07
pagi-place,Pagi Place,"Muslim Owner,  Home,  Early Bird","https://www.google.com/maps/search/?api=1&query=2.9162157,101.7505492&query_place_id=ChIJO7t7bXfNzTERBlqHaIeuXAc",Bandar Baru Bangi,Selangor,10,2.9162157,101.7505492,https://www.instagram.com/pagi.baker,https://www.facebook.com/pagi.place,,https://www.tiktok.com/@pagi.baker,https://wa.me/60129693944,20-03-2024,03:36:07
middle-lane-coffee,Middle Lane Coffee,Early Bird,"https://www.google.com/maps/search/?api=1&query=3.152182,101.7081972&query_place_id=ChIJGfpmoE83zDERDR60O3y_5Us",Kuala Lumpur,Kuala Lumpur,14,3.152182,101.7081972,https://www.instagram.com/middlelane.coffee,,,,https://wa.me/601155074097,20-03-2024,03:36:07
kopi-cemara,Kopi Cemara,"Muslim Owner,  Stall","https://www.google.com/maps/search/?api=1&query=2.995716400000001,101.7054262&query_place_id=ChIJw98doRe1zTER4T7ucVeSnY4",Serdang,Selangor,10,2.995716400000001,101.7054262,https://www.instagram.com/kopicemara.upm,https://www.facebook.com/kopicemara.upm,,https://www.tiktok.com/@kopicemara.upm,https://wa.me/60108754742,20-03-2024,03:36:07
morejoe-coffee,MoreJoe Coffee,"Muslim Owner,  Home","https://www.google.com/maps/?q=3.081366,101.491221",Shah Alam,Selangor,10,3.081366,101.491221,https://www.instagram.com/morejoe.coffee,https://www.facebook.com/morejoecoffee,,https://www.tiktok.com/morejoe.coffee,https://wa.me/60104640388,20-03-2024,03:36:07
amp-cafe,AMP Cafe,,"https://www.google.com/maps/search/?api=1&query=3.1577567,101.7511395&query_place_id=ChIJNR2hD6Q3zDER8nGdOZxTSKw",Ampang,Selangor,10,3.1577567,101.7511395,https://www.instagram.com/ampcafe_my,,,,https://wa.me/60173303865,20-03-2024,03:36:07
coffee-stop,Coffee Stop,"Muslim Owner,  Night Owl,  Mobile,  Stall","https://www.google.com/maps/search/?api=1&query=5.6441557,100.4892462&query_place_id=ChIJsQ1IGTEpSzARYvejZQevnO4",Sungai Petani,Kedah,2,5.6441557,100.4892462,https://www.instagram.com/coffeestopsp,,,https://www.tiktok.com/@coffee_stop.sp,https://wa.me/60124098147,20-03-2024,03:36:07
love-you-latte-slowbar-coffee,Love You Latte Slowbar Coffee,"Muslim Owner,  Mobile,  Stall","https://www.google.com/maps/search/?api=1&query=5.382974,103.1157135&query_place_id=ChIJWfvg3g-9tzERtXZH0MVHqCk",Kuala Terengganu,Terengganu,11,5.382974,103.1157135,https://www.instagram.com/loveyou_latte,,,https://www.tiktok.com/loveyoulatte,https://wa.me/60142971550,20-03-2024,03:36:07
senja-cafes,Senja Cafe's,"Muslim Owner,  Night Owl","https://www.google.com/maps/search/?api=1&query=3.1419544,101.3584883&query_place_id=ChIJOWnyEz5XzDERMur3Y20IhNI",Kapar,Selangor,10,3.1419544,101.3584883,https://www.instagram.com/senja.cafes,https://www.facebook.com/profile.php?id=100094978582800,,https://www.tiktok.com/@senja.cafes,https://wa.me/60168734367,20-03-2024,03:36:07
loaf-adam-patisserie,"Loaf, Adam Patisserie",Muslim Owner,"https://www.google.com/maps/search/?api=1&query=1.494338,103.7400716&query_place_id=ChIJj859oZJx2jERuJRFMT3drko",Johor Bahru,Johor,1,1.494338,103.7400716,https://www.instagram.com/loafadam.patisserie,,,,https://wa.me/60183730400,20-03-2024,03:36:07
rays-bland,RAYs B.Land,Muslim Friendly,"https://www.google.com/maps/search/?api=1&query=3.0943362,101.6316212&query_place_id=ChIJ14lH_GJLzDER1Ri495RFr9w",Petaling Jaya,Selangor,10,3.0943362,101.6316212,https://www.instagram.com/raysgotchu,,,,,20-03-2024,03:36:07
mixof-coffee,Mixof Coffee,Night Owl,"https://www.google.com/maps/search/?api=1&query=2.8223694,101.6945721&query_place_id=ChIJhU4K9h-5zTERpXh6N73PbfE",Sepang,Selangor,10,2.8223694,101.6945721,https://www.instagram.com/mixof.koffee,,,,https://wa.me/60176872050,20-03-2024,03:36:07
mars-coffee,Mars Coffee,"Muslim Owner,  Night Owl,  Stall","https://www.google.com/maps/search/?api=1&query=3.0578937,101.4083367&query_place_id=ChIJZYmOSr5VzDERGYOmgFo9R1I",Klang,Selangor,10,3.0578937,101.4083367,https://www.instagram.com/marscoffee.my,,,,https://wa.me/601110321626,20-03-2024,03:36:07
tanamera-coffee-roastery,Tanamera Coffee & Roastery,"Muslim Owner,  Early Bird","https://www.google.com/maps/search/?api=1&query=3.1679296,101.6524213&query_place_id=ChIJL2ooL_lJzDERklUHLN9hAq8",Kuala Lumpur,Kuala Lumpur,14,3.1679296,101.6524213,https://www.instagram.com/tanameracoffeemys,,,,https://wa.me/60125308268,20-03-2024,03:36:07
kopii-kay,Kopii Kay,"Muslim Owner,  Night Owl,  Home","https://www.google.com/maps/search/?api=1&query=2.8293077,101.6371824&query_place_id=ChIJdZStmgK5zTERCuxQJeNidqs",Banting,Selangor,10,2.8293077,101.6371824,https://www.instagram.com/kopiikay,,,https://www.tiktok.com/@Kopiikay,https://wa.me/60186682062,20-03-2024,03:36:07
pouf-bake,Pouf Bake,,"https://www.google.com/maps/search/?api=1&query=3.0666205,101.7412871&query_place_id=ChIJrV68Eyc1zDERfgp6qWzBaQY",Cheras,Kuala Lumpur,14,3.0666205,101.7412871,https://www.instagram.com/poufbake,,,,,20-03-2024,03:36:07
kupiku-my,Kupiku.My,"Muslim Owner,  Night Owl,  Mobile,  Stall","https://www.google.com/maps/search/?api=1&query=3.6733206,101.5312867&query_place_id=ChIJX0NmkK-JyzERzCcFxaLlheg",Kerling,Selangor,10,3.6733206,101.5312867,https://www.instagram.com/Kupiku.my,,,https://www.tiktok.com/@kupiku.my,https://wa.me/60182442017,20-03-2024,03:36:07
kopi-kubo,Kopi Kubo,,"https://www.google.com/maps/search/?api=1&query=3.1609084,101.7461318&query_place_id=ChIJ-fRwJNs3zDERp1Sl_TG3eOY",Kuala Lumpur,Kuala Lumpur,14,3.1609084,101.7461318,https://www.instagram.com/kopi.kubo.kl,,,,https://wa.me/60147678499,20-03-2024,03:36:07
pluuus,Pluuus,,"https://www.google.com/maps/search/?api=1&query=3.0860709,101.5425279&query_place_id=ChIJPRWZTHFNzDERbxhBVBsd308",Shah Alam,Selangor,10,3.0860709,101.5425279,https://www.instagram.com/pluuuscoffee,,,,https://wa.me/60186649163,20-03-2024,03:36:07
kona-mokapot-coffee,Kona Mokapot Coffee,"Night Owl,  Early Bird","https://www.google.com/maps/search/?api=1&query=3.1201393,101.6584844&query_place_id=ChIJ2ea9G85JzDERkECj1PdmzSs",Kuala Lumpur,Kuala Lumpur,14,3.1201393,101.6584844,https://www.instagram.com/konamokapotcoffee,,,,,20-03-2024,03:36:07
lepak-pekan,Lepak Pekan,"Muslim Friendly,  Night Owl,  Home","https://www.google.com/maps/search/?api=1&query=5.365432699999999,100.4602845&query_place_id=ChIJ_9MVaxfJSjARKPEG4BTVH04",Bukit Mertajam,Pulau Pinang,7,5.365432699999999,100.4602845,https://www.instagram.com/lepakpekan,,,,https://wa.me/60194807392,20-03-2024,03:36:07
sand-wish,Sand Wish,,"https://www.google.com/maps/search/?api=1&query=3.6724896,100.9887054&query_place_id=ChIJ4W05VKGfzDERMjojqRgtKKA",Sungai Besar,Selangor,10,3.6724896,100.9887054,https://www.instagram.com/sandwish_sgbesar,,,,,20-03-2024,03:36:07
atas,Atas,,"https://www.google.com/maps/search/?api=1&query=5.408884599999999,100.331187&query_place_id=ChIJJQezaQDDSjAR0gs1EHpkwdk",Jelutong,Pulau Pinang,7,5.408884599999999,100.331187,https://www.instagram.com/atas171.pg,,,,,20-03-2024,03:36:07
nonno-cafe,Nonno Cafe,Early Bird,"https://www.google.com/maps/search/?api=1&query=2.899641,101.6724511&query_place_id=ChIJI9nWK563zTERxlHBKhvdz94",Putrajaya,Putrajaya,16,2.899641,101.6724511,https://www.instagram.com/nonno.caffe,,,,,20-03-2024,03:36:07
ltl-cafe-bakery,LTL Cafe & Bakery,,"https://www.google.com/maps/search/?api=1&query=5.4147833,100.3389121&query_place_id=ChIJK_3hy_nDSjARgmh3yruBVaM",George Town,Pulau Pinang,7,5.4147833,100.3389121,https://www.instagram.com/ltlcafepenang,,,,,20-03-2024,03:36:07
kopi-pasta-club,Kopi Pasta Club,Muslim Owner,"https://www.google.com/maps/search/?api=1&query=5.2846198,100.2367856&query_place_id=ChIJsQ8Yei23SjARar829LcDor0",Teluk Kumbar,Pulau Pinang,7,5.2846198,100.2367856,https://www.instagram.com/kopi.pasta.club,,,,,20-03-2024,03:36:07
cherlin-coffee,Cherlin Coffee,"Muslim Owner,  Home","https://www.google.com/maps/?q=3.3051006,101.5982037",Rawang,Selangor,10,3.3051006,101.5982037,https://www.instagram.com/cherlincoffee,https://www.facebook.com/profile.php?id=100088275035934,,https://www.tiktok.com/@cherlincoffee,https://wa.me/60103306360,20-03-2024,03:36:07
najm-kopi-bingsu,"Najm, Kopi & Bingsu",Muslim Owner,"https://www.google.com/maps/search/?api=1&query=5.1391769,100.493554&query_place_id=ChIJZbsuSumvSjARL3PYP9XuO0g",Nibong Tebal,Pulau Pinang,7,5.1391769,100.493554,https://www.instagram.com/najmcafe,,,https://www.tiktok.com/najm.kopi.bingsu,https://wa.me/601153780244,20-03-2024,03:36:07
kek-hutan,Kek & Hutan,"Muslim Owner,  Night Owl","https://www.google.com/maps/search/?api=1&query=6.1283603,102.2375538&query_place_id=ChIJ0eQiSQKvtjER5wDAP_-0daQ",Kota Bharu,Kelantan,3,6.1283603,102.2375538,https://www.instagram.com/kekdanhutan,,,,,20-03-2024,03:36:07
the-glasshopper,The Glasshopper,,"https://www.google.com/maps/search/?api=1&query=2.9428046,101.6939184&query_place_id=ChIJHTG4_Iy3zTERtBDNZdWMprM",Putrajaya,Putrajaya,16,2.9428046,101.6939184,https://www.instagram.com/theglasshopper_,,,,https://wa.me/60192867790,20-03-2024,03:36:07
tumboh-coffee-bar,Tumboh Coffee Bar,Muslim Owner,"https://www.google.com/maps/search/?api=1&query=5.308586699999999,103.1434789&query_place_id=ChIJT4Ai7Zm_tzERnA0G3sq4bQo",Kuala Terengganu,Terengganu,11,5.308586699999999,103.1434789,https://www.instagram.com/tumboh.coffeejoint,https://www.facebook.com/profile.php?id=100083148581329,,,https://wa.me/60137149131,20-03-2024,03:36:07
c-p-coffee-company-jade-hills,C&P Coffee Company,Muslim Owner,"https://www.google.com/maps/search/?api=1&query=2.9926308,101.7599747&query_place_id=ChIJS5WiSHTLzTERUTRmceN7vP0",Kajang,Selangor,10,2.9926308,101.7599747,https://www.instagram.com/cnp.coffee.jadehills,https://www.facebook.com/cnp.coffee.jadehills,https://www.twitter.com/cpcoffeeco1,https://www.tiktok.com/@cnp.coffee.co,https://wa.me/601135684567,20-03-2024,03:36:07
yuu-coffee,Yuu Coffee,,"https://www.google.com/maps/search/?api=1&query=5.4175305,100.3289949&query_place_id=ChIJ-cwaoUbDSjAROQjNQpOoJPc",George Town,Pulau Pinang,7,5.4175305,100.3289949,https://www.instagram.com/yuu.coffeee,,,,,20-03-2024,03:36:07
ye-boulangerie,Ye Boulangerie,"Non Halal,  Early Bird","https://www.google.com/maps/search/?api=1&query=3.1090169,101.4779057&query_place_id=ChIJ32UMRd9TzDERqZbon-7M3hY",Shah Alam,Selangor,10,3.1090169,101.4779057,https://www.instagram.com/ye_boulangerie,,,,,20-03-2024,03:36:07
tujuh-cafe,Tujuh Cafe,"Muslim Owner,  Night Owl","https://www.google.com/maps/search/?api=1&query=3.1365115,101.4189628&query_place_id=ChIJUaBfYmxRzDERG7kjoCNXq8w",Klang,Selangor,10,3.1365115,101.4189628,https://www.instagram.com/tujuhcafe?igshid=OGQ5ZDc2ODk2ZA==,,,https://www.tiktok.com/@tujuh_cafe,,20-03-2024,03:36:07
the-table-specialty-coffee,The Table Specialty Coffee,Muslim Owner,"https://www.google.com/maps/search/?api=1&query=5.4223081,100.3395382&query_place_id=ChIJR36NoVLDSjARbAyHSw0eAWU",George Town,Pulau Pinang,7,5.4223081,100.3395382,https://www.instagram.com/thetable_specialtycoffee,,,,https://wa.me/60184710719,20-03-2024,03:36:07
hulu-cafe,Hulu Cafe,,"https://www.google.com/maps/search/?api=1&query=3.0899505,101.4555437&query_place_id=ChIJ13nywElTzDERjoMtdoOYz-M",Klang,Selangor,10,3.0899505,101.4555437,https://www.instagram.com/hulu.cafe,,,,https://wa.me/60189291266,20-03-2024,03:36:07
flour-fire-stone,Flour Fire & Stone,Muslim Friendly,"https://www.google.com/maps/search/?api=1&query=3.1158926,101.6316076&query_place_id=ChIJwVL28mBJzDERqy9dZpkHy4I",Petaling Jaya,Selangor,10,3.1158926,101.6316076,https://www.instagram.com/flour.fire.stone,,,,,20-03-2024,03:36:07
kafe-kopi-manees,Kafe Kopi Manees,"Muslim Owner,  Early Bird","https://www.google.com/maps/search/?api=1&query=3.0914008,101.5426595&query_place_id=ChIJwQ0OAilNzDERBFoXNz9teIQ",Shah Alam,Selangor,10,3.0914008,101.5426595,https://www.instagram.com/kafe.kopimanees,https://www.facebook.com/profile.php?id=61551138239958,,https://www.tiktok.com/@kafekopimanees13,https://wa.me/60129584785,20-03-2024,03:36:07
kopi-surat-cinta,Kopi Surat Cinta,"Muslim Owner,  Early Bird","https://www.google.com/maps/search/?api=1&query=2.912884,101.6840371&query_place_id=ChIJf6tA_bO3zTERNFVBC2hGejQ",Putrajaya,Putrajaya,16,2.912884,101.6840371,https://www.instagram.com/kopisuratcinta,https://www.facebook.com/kopisuratcinta,,https://www.tiktok.com/@kopisuratcinta,https://wa.me/60105883278,20-03-2024,03:36:07
kebun-puisi,Kebun Puisi,Muslim Owner,"https://www.google.com/maps/search/?api=1&query=2.8975931,101.802551&query_place_id=ChIJpyeh7-DPzTER81TQZjObExc",Kajang,Selangor,10,2.8975931,101.802551,https://www.instagram.com/kafekebunpuisi,https://www.facebook.com/KafeKebunPuisi,,https://www.tiktok.com/@kopisuratcinta,https://wa.me/60182619410,20-03-2024,03:36:07
kopi-bean-thang-kg-melayu,Kopi Bean Thang,"Muslim Owner,  Night Owl","https://www.google.com/maps/search/?api=1&query=1.5153582,103.7576256&query_place_id=ChIJz40vWjlt2jERBY2rolyWci4",Johor Bahru,Johor,1,1.5153582,103.7576256,https://www.instagram.com/kopibeanthang.kmjb,https://www.facebook.com/kopibeanthang.kmjb,,https://www.tiktok.com/@kopibeanthang.kmjb,,20-03-2024,03:36:07
flame-and-fern,Flame & Fern,,"https://www.google.com/maps/search/?api=1&query=1.4949072,103.7632905&query_place_id=ChIJo0vf4htt2jERJWkZsQQ9TME",Johor,Johor,1,1.4949072,103.7632905,https://www.instagram.com/flame_and_fern,,,,,20-03-2024,03:36:07
eight-ounce-coffee-co-the-gardens,Eight Ounce Coffee Co,,"https://www.google.com/maps/search/?api=1&query=3.118468,101.676098&query_place_id=ChIJH6xPw45JzDERW4aaZLn0ITw",Kuala Lumpur,Kuala Lumpur,14,3.118468,101.676098,https://www.instagram.com/eightouncecoffeeco,https://www.facebook.com/EightOunceCoffeeCo,,,,20-03-2024,03:36:07
eight-ounce-coffee-co-klcc,Eight Ounce Coffee Co,,"https://www.google.com/maps/search/?api=1&query=3.1570527,101.711591&query_place_id=ChIJUfMky9Y3zDERcHniM4j2iX4",Kuala Lumpur,Kuala Lumpur,14,3.1570527,101.711591,https://www.instagram.com/eightouncecoffeeco,https://www.facebook.com/EightOunceCoffeeCo,,,,20-03-2024,03:36:07
sunyay-bakehouse,Sunyay Bakehouse,,"https://www.google.com/maps/search/?api=1&query=3.1177292,101.6297458&query_place_id=ChIJCfWrXaNJzDERzRPBk93wNUs",Petaling Jaya,Selangor,10,3.1177292,101.6297458,https://www.instagram.com/sunyay.my,,,,,20-03-2024,03:36:07
budak-barista,Budak Barista,"Muslim Owner,  Stall","https://www.google.com/maps/search/?api=1&query=2.6971322,101.995668&query_place_id=ChIJHWZbq7ThzTERxG3vJCNT2hU",Seremban,Negeri Sembilan,5,2.6971322,101.995668,https://www.instagram.com/budak.barista,,,https://www.tiktok.com/@budakbarista,https://wa.me/60189447952,20-03-2024,03:36:07
yia-coffee-company,Yia Coffee Company,Muslim Friendly,"https://www.google.com/maps/search/?api=1&query=1.5578716,110.3474353&query_place_id=ChIJowTd3TWn-zER7L27aCvTlpA",Kuching,Sarawak,13,1.5578716,110.3474353,https://www.instagram.com/yiacoffeekch,https://www.facebook.com/profile.php?id=100076331315419,,,https://wa.me/60178671523,20-03-2024,03:36:07
moon-sun-coffee,Moon & Sun Coffee,,"https://www.google.com/maps/search/?api=1&query=1.5578449,110.3471274&query_place_id=ChIJk4iE20yn-zERY5NpG4Xe-8k",Kuching,Sarawak,13,1.5578449,110.3471274,https://www.instagram.com/moonandsuncoffee.malaysia,,,,,20-03-2024,03:36:07
seduhan-kopi,Seduhan Kopi,"Muslim Owner,  Night Owl,  Mobile","https://www.google.com/maps/?q=3.1614093999999997,101.70080259999999",Kuala Lumpur,Kuala Lumpur,14,3.1614093999999997,101.70080259999999,https://www.instagram.com/seduhan.kopi.my,https://www.facebook.com/seduhan.kopi.my,,,https://wa.me/60104232636,20-03-2024,03:36:07
ngopi-d-laut-cafe,Ngopi D'Laut Cafe,Muslim Owner,"https://www.google.com/maps/search/?api=1&query=2.3678999,102.0073228&query_place_id=ChIJjSjgy7MB0jERG-WqFMD9xvE",Melaka,Melaka,4,2.3678999,102.0073228,https://www.instagram.com/ngopi_dlautcafe,https://www.facebook.com/ct.hajar.3726,,https://www.tiktok.com/@ngopidlautcafe,https://wa.me/601116375457,20-03-2024,03:36:07
moaci-street-cafe,Moaci Street Cafe,"Muslim Owner,  Night Owl,  Stall","https://www.google.com/maps/search/?api=1&query=5.379208,100.3033226&query_place_id=ChIJvQJJNXDBSjARHEHKErMrIlw",George Town,Pulau Pinang,7,5.379208,100.3033226,https://www.instagram.com/moacistreetcafe,https://www.facebook.com/themoacicake,,https://www.tiktok.com/@moacistreetcafe,https://wa.me/60179889818,20-03-2024,03:36:07
budak-flat-cafe-co,Budak Flat Cafe & Co.,"Muslim Owner,  Night Owl","https://www.google.com/maps/search/?api=1&query=3.0591438,101.5068346&query_place_id=ChIJ05sC69NTzDERRg_kg10wwEk",Shah Alam,Selangor,10,3.0591438,101.5068346,https://www.instagram.com/budak_flat_cafe,https://www.facebook.com/pemudabnselangor,,https://www.tiktok.com/@budakflatcafeco,https://wa.me/601151692341,20-03-2024,03:36:07
kopiwan,KopiWan,"Muslim Owner,  Night Owl,  Home","https://www.google.com/maps/search/?api=1&query=4.6344638,101.1433164&query_place_id=ChIJMz7PVkTtyjERNNu0yg5INeQ",Ulu Kinta,Perak,8,4.6344638,101.1433164,,,,,https://wa.me/60134381031,20-03-2024,03:36:07
the-mugshot-cafe,The Mugshot Cafe,,"https://www.google.com/maps/search/?api=1&query=5.4183084,100.3365289&query_place_id=ChIJdW43hJDDSjAR-fd3UO2yVzE",George Town,Pulau Pinang,7,5.4183084,100.3365289,https://www.instagram.com/themugshotcafe,,,,https://wa.me/601124194829,20-03-2024,03:36:07
hill-heal,Hill & Heal,,"https://www.google.com/maps/search/?api=1&query=2.0253208,103.3459542&query_place_id=ChIJU66rlLdt0DER5CbAOVAFzts",Kluang,Johor,1,2.0253208,103.3459542,https://www.instagram.com/hill.n.heal,,,,,20-03-2024,03:36:07
double-dose-coffee,Double Dose Coffee,Muslim Friendly,"https://www.google.com/maps/search/?api=1&query=2.2084582,102.2429185&query_place_id=ChIJgwSlli_x0TERiAbrP2viOJY",Melaka,Melaka,4,2.2084582,102.2429185,https://www.instagram.com/doubledose_coffee,,,,https://wa.me/60186625200,20-03-2024,03:36:07
bharu-coffee,Bharu Coffee,"Muslim Owner,  Early Bird,  Stall","https://www.google.com/maps/search/?api=1&query=2.9697721,101.7672713&query_place_id=ChIJb5yWQDjLzTERkxaBCcduRnc",Bandar Baru Bangi,Selangor,10,2.9697721,101.7672713,https://www.instagram.com/bharu.coffee,,https://www.twitter.com/bharucoffee,https://www.tiktok.com/@bharu.coffee,https://wa.me/60176766499,20-03-2024,03:36:07
seafarer-coffee-roasters,Seafarer Coffee Roasters,,"https://www.google.com/maps/search/?api=1&query=3.052468,101.679084&query_place_id=ChIJRRBZ81pLzDERKdCIebMA9HI",Kuala Lumpur,Kuala Lumpur,14,3.052468,101.679084,https://www.instagram.com/seafarer.coffee,,,,https://wa.me/601156314793,20-03-2024,03:36:07
singgahngopi,SinggahNgopi,"Muslim Owner,  Stall","https://www.google.com/maps/search/?api=1&query=5.41167,100.4114776&query_place_id=ChIJQTvUKr_FSjARbAZ16XtYXkU",Permatang Pauh,Pulau Pinang,7,5.41167,100.4114776,https://www.instagram.com/_singgahngopi_,,,https://www.tiktok.com/@_singgahngopi_,https://wa.me/60135376292,20-03-2024,03:36:07
bruder-garunk-coffee,Bruder Garunk Coffee,"Muslim Owner,  Night Owl","https://www.google.com/maps/search/?api=1&query=1.4959794,103.7102543&query_place_id=ChIJq-1dhddz2jERMLcKK17zWfs",Johor Bahru,Johor,1,1.4959794,103.7102543,https://www.instagram.com/brudergarunkcoffee,,,https://www.tiktok.com/@brudergarunkcoffee,https://wa.me/60137579993,20-03-2024,03:36:07
kopi-ping-ping,Kopi Ping Ping,"Muslim Owner,  Early Bird,  Stall","https://www.google.com/maps/search/?api=1&query=2.9710993,101.5119311&query_place_id=ChIJRz0zhputzTERqrFaFRkzMvU",Shah Alam,Selangor,10,2.9710993,101.5119311,https://www.instagram.com/kopipingping,,,,https://wa.me/60176343977,20-03-2024,03:36:07
d-sudut-coffee,D'Sudut Coffee,Muslim Owner,"https://www.google.com/maps/search/?api=1&query=3.6804962,101.5202022&query_place_id=ChIJ1wrQ5M-HyzER5aU67Qpgdb0",Tanjong Malim,Perak,8,3.6804962,101.5202022,,https://www.facebook.com/dsudutcoffee,,,,20-03-2024,03:36:07
the-perfect-place,The Perfect Place,Night Owl,"https://www.google.com/maps/search/?api=1&query=1.4745734,103.8980905&query_place_id=ChIJxamE430V2jERemOWUoxzpEs",Pasir Gudang,Johor,1,1.4745734,103.8980905,https://www.instagram.com/perfectplaceofc,,,,,20-03-2024,03:36:07
brue-coffee,Brue Coffee,Muslim Friendly,"https://www.google.com/maps/search/?api=1&query=3.1865823,101.5254884&query_place_id=ChIJZZcSU7RPzDERI3Hu-giBFak",Shah Alam,Selangor,10,3.1865823,101.5254884,https://www.instagram.com/brue_cafe,,,,https://wa.me/60123238946,20-03-2024,03:36:07
reason-coffee,Reason Coffee,,"https://www.google.com/maps/search/?api=1&query=5.3151891,103.1478053&query_place_id=ChIJCff5lAi_tzERyJdhq7SazpI",Kuala Terengganu,Terengganu,11,5.3151891,103.1478053,https://www.instagram.com/reasoncoffeemy,,,,https://wa.me/601139745697,20-03-2024,03:36:07
seduhsin-puncak-perdana,Seduhsin,"Muslim Owner,  Home","https://www.google.com/maps/search/?api=1&query=3.1244614,101.4944985&query_place_id=ChIJN1e4VIJRzDERpvqiQ2PDifg",Shah Alam,Selangor,10,3.1244614,101.4944985,https://www.instagram.com/seduhsinpuncakperdana/,,,,https://wa.me/60162361085,20-03-2024,03:36:07
lf-coffee,LF Coffee,Muslim Owner,"https://www.google.com/maps/search/?api=1&query=2.9087657,101.8513889&query_place_id=ChIJHwwRadbPzTERDyWx-prWjHU",Semenyih,Selangor,10,2.9087657,101.8513889,https://www.instagram.com/lovefoodies_coffee,,,,https://wa.me/60189594694,20-03-2024,03:36:07
ditto,Ditto,Muslim Friendly,"https://www.google.com/maps/search/?api=1&query=3.139961,101.6575695&query_place_id=ChIJKXUVlfJJzDERDk0LAoooUyk",Kuala Lumpur,Kuala Lumpur,14,3.139961,101.6575695,https://www.instagram.com/fjord_xi,,,,https://wa.me/60129721768,20-03-2024,03:36:07
little-bun,Little Bun,Muslim Friendly,"https://www.google.com/maps/search/?api=1&query=3.1932839,101.6740408&query_place_id=ChIJU-zTL_lHzDER5S9NZ4oALfM",Kuala Lumpur,Kuala Lumpur,14,3.1932839,101.6740408,https://www.instagram.com/littlebun.cafe,,,,,20-03-2024,03:36:07
shan-mu,Shan Mu,,"https://www.google.com/maps/search/?api=1&query=3.0806292,101.7389188&query_place_id=ChIJGV2E4vQ1zDER5JHNoMChu2c",Kuala Lumpur,Kuala Lumpur,14,3.0806292,101.7389188,https://www.instagram.com/shanmu_cafe,,,,https://wa.me/60163628266,20-03-2024,03:36:07
hyroop-cafe,Hyroop Cafe,Muslim Owner,"https://www.google.com/maps/search/?api=1&query=6.4445693,100.2328158&query_place_id=ChIJ-cUtlZaZTDAR3e_wX0WbIGM",Kangar,Perlis,9,6.4445693,100.2328158,https://www.instagram.com/hyroop_cafe,,,,,20-03-2024,03:36:07
semi-d-coffee,Semi-D Coffee,"Muslim Owner,  Home,  Night Owl","https://www.google.com/maps/search/?api=1&query=2.9433722,101.778032&query_place_id=ChIJ4_IEop3JzTERrFjFiFjgW0w",Bangi,Selangor,10,2.9433722,101.778032,https://www.instagram.com/semi.dcoffee,,,,https://wa.me/601120647075,20-03-2024,03:36:07
gerabak-kopi,Gerabak Kopi,"Muslim Owner,  Stall","https://www.google.com/maps/search/?api=1&query=3.4943817,103.389681&query_place_id=ChIJPQV5fCBRzzEROv3LV2pzZEM",Pekan,Pahang,6,3.4943817,103.389681,https://www.instagram.com/gerabakkopi,,,,,20-03-2024,03:36:07
lacher-to-go,Lacher to-go,,"https://www.google.com/maps/search/?api=1&query=3.1508553,101.7199104&query_place_id=ChIJh_lFZ383zDER42fnceGuKiA",Kuala Lumpur,Kuala Lumpur,14,3.1508553,101.7199104,https://www.instagram.com/lachertogo,,,,,20-03-2024,03:36:07
lily-coffee,Lily Coffee,,"https://www.google.com/maps/search/?api=1&query=5.6405169,100.4888894&query_place_id=ChIJTRoo0UYpSzAR9adoaNqwNp4",Sungai Petani,Kedah,2,5.6405169,100.4888894,https://www.instagram.com/lilycoffee.sp,,,,https://wa.me/60175259692,20-03-2024,03:36:07
kopi-jalan-seruling,Kopi Jalan Seruling,Night Owl,"https://www.google.com/maps/search/?api=1&query=6.436434999999999,100.193685&query_place_id=ChIJw0nx89CZTDARFOXjXDIcgIU",Kangar,Perlis,9,6.436434999999999,100.193685,https://www.instagram.com/kopijalanseruling,,,,,20-03-2024,03:36:07
kafka-coffee,Kafka Coffee,,"https://www.google.com/maps/search/?api=1&query=5.4290634,100.3181956&query_place_id=ChIJpQdap1DDSjAR9G87hV2LyNI",George Town,Pulau Pinang,7,5.4290634,100.3181956,https://www.instagram.com/kafkapenang,,,,,20-03-2024,03:36:07
liten-coffee,Liten Coffee,"Muslim Owner,  Night Owl","https://www.google.com/maps/search/?api=1&query=3.20689,101.6999386&query_place_id=ChIJnQ6jbflHzDERSuPC7Mb03m8",Kuala Lumpur,Kuala Lumpur,14,3.20689,101.6999386,https://www.instagram.com/litencoffee.roasters,,,,https://wa.me/60136763618,20-03-2024,03:36:07
aft-bakery,Aft Bakery,"Muslim Owner,  Night Owl,  Early Bird","https://www.google.com/maps/?q=2.6601594,101.8778527",Siliau,Negeri Sembilan,5,2.6601594,101.8778527,https://www.instagram.com/aft.bakery,https://www.facebook.com/AftBakery,,,https://wa.me/601170137081,20-03-2024,03:36:07
laman-coffee,Laman Coffee,"Muslim Friendly,  Night Owl,  Home","https://www.google.com/maps/search/?api=1&query=3.1653177,101.6238166&query_place_id=ChIJi-L6wbhJzDERrys_omwkrbM",Kuala Lumpur,Kuala Lumpur,14,3.1653177,101.6238166,https://www.instagram.com/lamancoffeebar,,,,https://wa.me/60109550101,20-03-2024,03:36:07
pak-teh-koffee,Pak Teh Koffee,"Muslim Owner,  Night Owl,  Early Bird","https://www.google.com/maps/search/?api=1&query=5.5193169,100.4362741&query_place_id=ChIJEV7xKjPbSjARoZX40pNcKwY",Kepala Batas,Pulau Pinang,7,5.5193169,100.4362741,,https://www.facebook.com/PakTehNasiKandarMelayu,,,https://wa.me/60123638910,20-03-2024,03:36:07
a-paris-bakehouse,A Paris Bakehouse,,"https://www.google.com/maps/search/?api=1&query=3.1954043,101.617004&query_place_id=ChIJdZ0z1h9HzDER55RBT3X-h2E",Kuala Lumpur,Kuala Lumpur,14,3.1954043,101.617004,https://www.instagram.com/aparisbakehouse,,,,,20-03-2024,03:36:07
dr-kafein,Dr Kafein,,"https://www.google.com/maps/search/?api=1&query=5.7944814,100.4809825&query_place_id=ChIJD_Eo8uBHSzARXKHQlWnJtZc",Gurun,Kedah,2,5.7944814,100.4809825,https://www.instagram.com/dr_kafein,,,,,20-03-2024,03:36:07
magical-beans-cafe,Magical Beans Cafe,Night Owl,"https://www.google.com/maps/search/?api=1&query=4.5951287,101.0847091&query_place_id=ChIJ6YUNwv3tyjERkLSk4ZY7tEM",Ipoh,Perak,8,4.5951287,101.0847091,https://www.instagram.com/magicalbeanscafe_,,,,,20-03-2024,03:36:07
cant-chill-coffee,Can't Chill Coffee,"Muslim Owner,  Mobile","https://www.google.com/maps/search/?api=1&query=3.6733703,101.5311811&query_place_id=ChIJZ_GK2xaJyzERDNs_XOBqleY",Tanjong Malim,Perak,8,3.6733703,101.5311811,https://www.instagram.com/cantchillcoffee,,,,https://wa.me/601170218857,20-03-2024,03:36:07
spaced-out,Spaced Out,"Muslim Owner,  Night Owl","https://www.google.com/maps/search/?api=1&query=3.165499,101.5751334&query_place_id=ChIJtwZ3yg5PzDERkG8WGIyvG5s",Petaling Jaya,Selangor,10,3.165499,101.5751334,https://www.instagram.com/spacedoutt____,,,,,20-03-2024,03:36:07
three-guys-mahsa,Three Guys,Muslim Friendly,"https://www.google.com/maps/search/?api=1&query=3.1181839,101.6494416&query_place_id=ChIJf2txS9pJzDERaWbE7XC5yaU",Kuala Lumpur,Kuala Lumpur,14,3.1181839,101.6494416,https://www.instagram.com/threeguyskl,,,,https://wa.me/60104309123,20-03-2024,03:36:07
three-guys-bangsar,Three Guys,Muslim Friendly,"https://www.google.com/maps/search/?api=1&query=3.1329469,101.6716158&query_place_id=ChIJcyBIkclJzDER4u3MPbHLllE",Kuala Lumpur,Kuala Lumpur,14,3.1329469,101.6716158,https://www.instagram.com/threeguyskl,,,,https://wa.me/60104309123,20-03-2024,03:36:07
kopi-bean-thang,Kopi Bean Thang,,"https://www.google.com/maps/search/?api=1&query=1.4699079,103.7369871&query_place_id=ChIJyyU8BGMT2jER0lakvhk4DkQ",Johor Bahru,Johor,1,1.4699079,103.7369871,https://www.instagram.com/beanthangcoffee,,,,,20-03-2024,03:36:07
liserra-coffee,Liserra Coffee,,"https://www.google.com/maps/search/?api=1&query=3.1419569,101.6291619&query_place_id=ChIJyaDEDatJzDERapGJ6Jpy3E4",Kuala Lumpur,Kuala Lumpur,14,3.1419569,101.6291619,https://www.instagram.com/liserra.coffee,,,,https://wa.me/60173601055,20-03-2024,03:36:07
colfi,COLFi,,"https://www.google.com/maps/search/?api=1&query=3.1503553,101.707234&query_place_id=ChIJ1aKgM143zDERvgPDjlCYgTA",Kuala Lumpur,Kuala Lumpur,14,3.1503553,101.707234,https://www.instagram.com/colfi_official,,,,https://wa.me/60194449119,20-03-2024,03:36:07
cara-caro,Cara Caro,,"https://www.google.com/maps/search/?api=1&query=5.4190317,100.3330481&query_place_id=ChIJBUATgvHDSjARINaZApsyupQ",George Town,Pulau Pinang,7,5.4190317,100.3330481,https://www.instagram.com/caracarocafe,,,,,20-03-2024,03:36:07
blossom-a-glassmansion,Blossom a Glassmansion,,"https://www.google.com/maps/search/?api=1&query=3.1461533,101.7180344&query_place_id=ChIJS_owqeo3zDER6ifPMF1eV9c",Kuala Lumpur,Kuala Lumpur,14,3.1461533,101.7180344,https://www.instagram.com/blossom.glassmansion,,,,https://wa.me/601154293499,20-03-2024,03:36:07
anooh-coffee,Anooh Coffee,,"https://www.google.com/maps/search/?api=1&query=5.9795089,116.5906439&query_place_id=ChIJT3aQinKZOzIR4UqslihlQ1k",Ranau,Sabah,12,5.9795089,116.5906439,https://www.instagram.com/anooh_coffee,,,,,20-03-2024,03:36:07
sunbrew-coffee,Sunbrew Coffee,,"https://www.google.com/maps/search/?api=1&query=3.1354718,101.6185472&query_place_id=ChIJeb-K7qlJzDERq78be5kTQdU",Petaling Jaya,Selangor,10,3.1354718,101.6185472,https://www.instagram.com/sunbrew.uptown,,,,,20-03-2024,03:36:07
llyods-cafe-roti,Llyod's Cafe & Roti,,"https://www.google.com/maps/search/?api=1&query=3.0570525,101.4722375&query_place_id=ChIJ5SLLTnNTzDERJDmMmN63rVg",Klang,Selangor,10,3.0570525,101.4722375,https://www.instagram.com/lloydscaferoti,,,,https://wa.me/60123369734,20-03-2024,03:36:07
teman-bicara,Teman Bicara,"Muslim Owner,  Home","https://www.google.com/maps/search/?api=1&query=3.0254064,101.4527937&query_place_id=ChIJN03iRmqtzTER1WxH_BoK_oY",Klang,Selangor,10,3.0254064,101.4527937,https://www.instagram.com/teman_._bicara,https://www.facebook.com/bsk.shamsulnizam,,,,20-03-2024,03:36:07
kopi-beetle,Kopi Beetle,"Muslim Owner,  Mobile,  Night Owl","https://www.google.com/maps/?q=3.0863298,101.5220168",Shah Alam,Selangor,10,3.0863298,101.5220168,https://www.instagram.com/kopibeetle,,,https://www.tiktok.com/@kopibeetle,,20-03-2024,03:36:07
lomaq-coffee,Lomaq Coffee,"Muslim Friendly,  Stall","https://www.google.com/maps/search/?api=1&query=5.354574,100.3011807&query_place_id=ChIJcxRtrobBSjARE75DhFMJtCk",Gelugor,Pulau Pinang,7,5.354574,100.3011807,,,,,https://wa.me/60122980934,20-03-2024,03:36:07
kom-fi,Kom Fi,"Muslim Owner,  Early Bird","https://www.google.com/maps/search/?api=1&query=3.1439367,101.4812052&query_place_id=ChIJ6YSqBTRRzDER9vyyVTje81A",Shah Alam,Selangor,10,3.1439367,101.4812052,https://www.instagram.com/komfi.cafe,https://www.facebook.com/komfi.cafe,https://www.twitter.com/komfi_cafe,https://www.tiktok.com/@komfi.cafe,https://wa.me/60134002064,20-03-2024,03:36:07
mat-coffee-pak-mat-western,Mat Coffee (by Pak Mat Western),Muslim Owner,"https://www.google.com/maps/search/?api=1&query=5.3232577,100.4510883&query_place_id=ChIJ3ct-kA3ISjAREoQeWBW8U-A",Bukit Mertajam,Pulau Pinang,7,5.3232577,100.4510883,https://www.instagram.com/mat_.coffee,,,,https://wa.me/601136152643,20-03-2024,03:36:07
meetcha-cafe,Meetcha Cafe,Muslim Friendly,"https://www.google.com/maps/search/?api=1&query=5.237358500000001,100.4408683&query_place_id=ChIJPTmsn8q3SjAR4wyXhwYMwTU",Simpang Ampat,Pulau Pinang,7,5.237358500000001,100.4408683,https://www.instagram.com/meetcha.cafe?igshid=NzZlODBkYWE4Ng%3D%3D&utm_source=qr,https://www.facebook.com/meetcha.cafe,,https://www.tiktok.com/@meetcha.cafe,https://wa.me/60124958663,20-03-2024,03:36:07
orca-coffee-company,Orca Coffee Company,"Muslim Owner,  Night Owl,  Mobile","https://www.google.com/maps/search/?api=1&query=3.1415212,101.7424673&query_place_id=ChIJLWrnyak3zDER4c-rXeL4PCA",Ampang Jaya,Selangor,10,3.1415212,101.7424673,https://www.instagram.com/orcacoffeeco,https://www.facebook.com/orcacoffeeco,,https://www.tiktok.com/@orca.coffee.co,https://wa.me/60173289576,20-03-2024,03:36:07
ikan-emas-coffee,Ikan Emas Coffee,,"https://www.google.com/maps/search/?api=1&query=2.1984604,102.2509806&query_place_id=ChIJqz6KFezx0TERPUJsTb-o7PU",Melaka,Melaka,4,2.1984604,102.2509806,https://www.instagram.com/ikanemascoffee,,,,,20-03-2024,03:36:07
8-churros-coffee,8 Churros Coffee,Night Owl,"https://www.google.com/maps/search/?api=1&query=3.1638684,101.70276&query_place_id=ChIJKwhiVP9JzDER4B9ZRz8c9PI",Kuala Lumpur,Kuala Lumpur,14,3.1638684,101.70276,https://www.instagram.com/8churroscoffee,,,,,20-03-2024,03:36:07
syukor-coffee,Syukor Coffee,"Muslim Owner,  Night Owl","https://www.google.com/maps/search/?api=1&query=1.551471,103.7377002&query_place_id=ChIJTaeEmeBt2jERG0anxD9vTmc",Johor Bahru,Johor,1,1.551471,103.7377002,https://www.instagram.com/syukorcoffee,https://www.facebook.com/syukorcoffee,,,https://wa.me/601133331003,20-03-2024,03:36:07
moon-coffee-dessert,Moon Coffee & Dessert,"Muslim Friendly,  Stall","https://www.google.com/maps/search/?api=1&query=1.4830444,103.9411834&query_place_id=ChIJx_mNYT9B2jERpNXSMdgbXXw",Pasir Gudang,Johor,1,1.4830444,103.9411834,https://www.instagram.com/moon.coffsert,,,,https://wa.me/60167465357,20-03-2024,03:36:07
osaka-coffee,Osaka Coffee,Muslim Owner,"https://www.google.com/maps/search/?api=1&query=4.263466999999999,117.895698&query_place_id=ChIJ-U7uVAudFTIRcbH6VuVfcMc",Tawau,Sabah,12,4.263466999999999,117.895698,https://www.instagram.com/osakacoffeecafe,,,https://www.tiktok.com/@osakacoffee,https://wa.me/60124889268,20-03-2024,03:36:07
kaf-kopi,Kaf Kopi,"Muslim Owner,  Home","https://www.google.com/maps/search/?api=1&query=2.6969445,101.823055&query_place_id=ChIJYXtHwCfpzTERbQM9IGD7BR0",Labu,Negeri Sembilan,5,2.6969445,101.823055,https://www.instagram.com/kaf_kopi,,,,https://wa.me/60193720494,20-03-2024,03:36:07
the-coffee-dock,The Coffee Dock,"Muslim Owner,  Night Owl","https://www.google.com/maps/search/?api=1&query=3.0928067,101.5166892&query_place_id=ChIJHzx650hTzDERAqd0mtHBrIw",Shah Alam,Selangor,10,3.0928067,101.5166892,https://www.instagram.com/thecoffeedockmy,,,https://www.tiktok.com/@thecoffeedockmy,https://wa.me/60189484982,20-03-2024,03:36:07
qpi,QPi,"Muslim Owner,  Night Owl,  Stall","https://www.google.com/maps/search/?api=1&query=3.1780185,101.7430719&query_place_id=ChIJG39I8Fs3zDERRlLVkzBaw4o",Kuala Lumpur,Kuala Lumpur,14,3.1780185,101.7430719,https://www.instagram.com/qpi.Kofi,https://www.facebook.com/qpi.Kofi,,,https://wa.me/60182545077,20-03-2024,03:36:07
golden-beach,Golden Beach,,"https://www.google.com/maps/search/?api=1&query=4.1265029,103.3965816&query_place_id=ChIJO7cVAEuFyDERODbi0jmEpcU",Kuantan,Pahang,6,4.1265029,103.3965816,https://www.instagram.com/goldenbeachcherating,,,,https://wa.me/60123068977,20-03-2024,03:36:07
tujoh-coffee,Tujoh Coffee,"Muslim Owner,  Home","https://www.google.com/maps/search/?api=1&query=5.0419622,100.3928236&query_place_id=ChIJnVtlIDunSjARjKrmCchFSKA",Kuala Kurau,Perak,8,5.0419622,100.3928236,https://www.instagram.com/_tujohcoffee,,,https://www.tiktok.com/@_tujohcoffee,https://wa.me/60173354960,20-03-2024,03:36:07
temp-coffee-dine-pastry,Temp Coffee Dine Pastry,Muslim Friendly,"https://www.google.com/maps/search/?api=1&query=5.2380486,100.4402125&query_place_id=ChIJoeAOHd-3SjAReNwPYZvtsqE",Batu Kawan,Pulau Pinang,7,5.2380486,100.4402125,https://www.instagram.com/temp.coffee.dine,https://www.facebook.com/tempcoffeedine,,,,20-03-2024,03:36:07
the-eh-coffee,The Eh Coffee,Muslim Owner,"https://www.google.com/maps/search/?api=1&query=2.9980571,101.7487185&query_place_id=ChIJj-6YMDHLzTERotrczhY5IbU",Kajang,Selangor,10,2.9980571,101.7487185,https://www.instagram.com/theehcoffee,,,,https://wa.me/60139397349,20-03-2024,03:36:07
fewlab-coffee,Fewlab Coffee,"Muslim Owner,  Night Owl","https://www.google.com/maps/search/?api=1&query=1.6609195,103.6027421&query_place_id=ChIJVZVC2MB52jERTjOGsxQM9GM",Kulai,Johor,1,1.6609195,103.6027421,https://www.instagram.com/fewlabcoffee,,,,https://wa.me/60182667727,20-03-2024,03:36:07
kaffeex,Kaffeex,"Muslim Owner,  Night Owl,  Home","https://www.google.com/maps/search/?api=1&query=1.6891111,103.5217189&query_place_id=ChIJtcw2bu-D0DERPQodHwTU8Ro",Kulai,Johor,1,1.6891111,103.5217189,https://www.instagram.com/kaffeex_,,,,https://wa.me/60197232800,20-03-2024,03:36:07
kopi-kite,Kopi Kite,"Muslim Owner,  Mobile","https://www.google.com/maps/?q=1.5735558,104.2063097",Bandar Penawar,Johor,1,1.5735558,104.2063097,https://www.instagram.com/_kopikite_,https://www.facebook.com/cabinCafeKopiKite,,,https://wa.me/601135845512,20-03-2024,03:36:07
reda,REDA,Muslim Friendly,"https://www.google.com/maps/search/?api=1&query=3.0571333,101.4901453&query_place_id=ChIJ385hzxFTzDER1A38Kbx9prI",Shah Alam,Selangor,10,3.0571333,101.4901453,https://www.instagram.com/redacoffee,,,,,20-03-2024,03:36:07
mocha-cafe,Mocha Cafe,,"https://www.google.com/maps/search/?api=1&query=5.118185299999999,100.4857512&query_place_id=ChIJTagouRavSjARgsZLt9lcfDk",Parit Buntar,Perak,8,5.118185299999999,100.4857512,https://www.instagram.com/mocha_cafe_pb,,,,https://wa.me/60173648860,20-03-2024,03:36:07
pejam-mata-cafe,Pejam Mata Cafe,,"https://www.google.com/maps/search/?api=1&query=2.945219,101.7666826&query_place_id=ChIJ1W8In9rLzTERfesT8-FfTl8",Bangi,Selangor,10,2.945219,101.7666826,https://www.instagram.com/pejam.matacafe,,,,https://wa.me/60199527720,20-03-2024,03:36:07
the-mios-coffee,The Mios Coffee,,"https://www.google.com/maps/search/?api=1&query=3.0887786,101.5465465&query_place_id=ChIJz7ZP_VJNzDER5RpBZ-G-aCY",Shah Alam,Selangor,10,3.0887786,101.5465465,https://www.instagram.com/themioscoffee,,,,,20-03-2024,03:36:07
knead,Knead,,"https://www.google.com/maps/search/?api=1&query=3.0351064,101.7051836&query_place_id=ChIJuYqO-LhLzDER0t4LnuyBrI0",Seri Kembangan,Selangor,10,3.0351064,101.7051836,https://www.instagram.com/knead.kl,,,,,20-03-2024,03:36:07
contour,Contour,,"https://www.google.com/maps/search/?api=1&query=3.0860515,101.6487753&query_place_id=ChIJm-hWpe9LzDER4c1NR02GuTA",Petaling Jaya,Selangor,10,3.0860515,101.6487753,https://www.instagram.com/contour.pj,,,,,20-03-2024,03:36:07
ngopi-hub,Ngopi,Muslim Owner,"https://www.google.com/maps/search/?api=1&query=6.112315499999999,102.287258&query_place_id=ChIJjwsLpTmxtjERHrM6_Qjni2o",Kota Bharu,Kelantan,3,6.112315499999999,102.287258,https://www.instagram.com/ngopi_hub,,,,,20-03-2024,03:36:07
tomy-coffee,Tomy Coffee,"Muslim Friendly,  Home,  Stall","https://www.google.com/maps/search/?api=1&query=3.0746887,101.4982676&query_place_id=ChIJ9xSnifVSzDER3bR0P36mHQs",Shah Alam,Selangor,10,3.0746887,101.4982676,https://www.instagram.com/tomycoffeemy,,,https://www.tiktok.com/https://www.tiktok.com/@tomycoffee,https://wa.me/60138906108,20-03-2024,03:36:07
simpol,Simpol,,"https://www.google.com/maps/search/?api=1&query=6.117109399999999,100.3645572&query_place_id=ChIJHeyqcLZFSzAREmb7Ul6KlVU",Alor Setar,Kedah,2,6.117109399999999,100.3645572,https://www.instagram.com/simpol.my,,,https://www.tiktok.com/@simpol.my,,20-03-2024,03:36:07
roastway-coffee,Roastway Coffee,"Muslim Owner,  Night Owl","https://www.google.com/maps/search/?api=1&query=3.9371586,102.359758&query_place_id=ChIJl716mJtByTERitW9tpco9zI",Jerantut,Pahang,6,3.9371586,102.359758,https://www.instagram.com/roastway.coffee,https://www.facebook.com/roastwaycoffee,,https://www.tiktok.com/@roastwaycoffee,https://wa.me/60199563047,20-03-2024,03:36:07
noff-coffee,Noff Coffee,,"https://www.google.com/maps/search/?api=1&query=3.0269565,101.7547016&query_place_id=ChIJh9GSGEHLzTERFAgSvGDEsTA",Seri Kembangan,Selangor,10,3.0269565,101.7547016,https://www.instagram.com/noff_coffee_,,,,,20-03-2024,03:36:07
kopi-kapchai,Kopi Kapchai,"Muslim Friendly,  Mobile,  Stall","https://www.google.com/maps/?q=5.3780133999999995,100.4134703",Permatang Pauh,Pulau Pinang,7,5.3780133999999995,100.4134703,https://www.instagram.com/kopikapchai_,https://www.facebook.com/wanelzynees,,https://www.tiktok.com/@kopikapchai,https://wa.me/60175054002,20-03-2024,03:36:07
bon-bon-cafe,Bon Bon Cafe,"Muslim Friendly,  Night Owl","https://www.google.com/maps/search/?api=1&query=3.1411606,101.7101895&query_place_id=ChIJe0-u5HE3zDERzvUmvkREx74",Kuala Lumpur,Kuala Lumpur,14,3.1411606,101.7101895,https://www.instagram.com/bon.boncafe,,,https://www.tiktok.com/@bon.boncafe,https://wa.me/60137773500,20-03-2024,03:36:07
poffee-hoffee-bread-cafe,Poffee Hoffee Bread & Cafe,"Muslim Friendly,  Home","https://www.google.com/maps/search/?api=1&query=3.2384844,101.6980127&query_place_id=ChIJG6kCrANHzDERMtJuF_FT0IA",Batu Caves,Selangor,10,3.2384844,101.6980127,https://www.instagram.com/poffee_hoffee,https://www.facebook.com/profile.php?id=100064169645845,,https://www.tiktok.com/@poffeehoffee,https://wa.me/+60176230380,20-03-2024,03:36:07
vintage-1988,Vintage 1988,,"https://www.google.com/maps/search/?api=1&query=3.1428528,101.6985539&query_place_id=ChIJtdxBfe1JzDERBfEXbL58DqY",Kuala Lumpur,Kuala Lumpur,14,3.1428528,101.6985539,https://www.instagram.com/v88_chinatown,,,,,20-03-2024,03:36:07
dangau-langkawi,Dangau Langkawi,,"https://www.google.com/maps/search/?api=1&query=6.342234200000001,99.7833387&query_place_id=ChIJNb0dpBl5TDARUXGr4SRzw3w",Langkawi,Kedah,2,6.342234200000001,99.7833387,https://www.instagram.com/dangau_langkawi,,,,,20-03-2024,03:36:07
weknah-caffeine,Weknah Caffeine,"Muslim Owner,  Night Owl,  Home","https://www.google.com/maps/search/?api=1&query=1.8807691,102.9768095&query_place_id=ChIJX7g-pBJR0DERVPyd4GuaEyY",Batu Pahat,Johor,1,1.8807691,102.9768095,https://www.instagram.com/weknahcaffeine,,,,https://wa.me/60177338684,20-03-2024,03:36:07
jarodcafe,JARODCAFE,Muslim Friendly,"https://www.google.com/maps/search/?api=1&query=5.340069499999999,100.4579637&query_place_id=ChIJ1StlWqDLSjARGSa9n3JMInA",Bukit Mertajam,Pulau Pinang,7,5.340069499999999,100.4579637,https://www.instagram.com/jarodcafe,https://www.facebook.com/arodcafe.penang,,https://www.tiktok.com/@jarodcafe,https://wa.me/60146071966,20-03-2024,03:36:07
bakolab-coffee,Bakolab Coffee,Stall,"https://www.google.com/maps/search/?api=1&query=2.9073012,101.8663368&query_place_id=ChIJTd8ImSnPzTERhuEb4i4bgtk",Semenyih,Selangor,10,2.9073012,101.8663368,https://www.instagram.com/bakolabmy,,,,,20-03-2024,03:36:07
shake-bake,Shake & Bake,Tourism Malaysia,"https://www.google.com/maps/search/?api=1&query=4.5908088,101.0935448&query_place_id=ChIJA3Ol0VztyjER46y7iF9lUww",Ipoh,Perak,8,4.5908088,101.0935448,https://www.instagram.com/shakenbake.cafe,,,,https://wa.me/60174083833,20-03-2024,03:36:07
rumah-kupi-kangar,Rumah Kupi,Tourism Malaysia,"https://www.google.com/maps/search/?api=1&query=6.4743577,100.2597832&query_place_id=ChIJe5u0FFq9TDARSmS30UDlLZA",Kangar,Perlis,9,6.4743577,100.2597832,https://www.instagram.com/_rumahkupi,,,,https://wa.me/601162434476,20-03-2024,03:36:07
koppiku,Koppiku,"Stall,  Early Bird","https://www.google.com/maps/search/?api=1&query=3.1659712,101.652381&query_place_id=ChIJLSlloZRJzDERbVXMlLpx4ww",Kuala Lumpur,Kuala Lumpur,14,3.1659712,101.652381,https://www.instagram.com/koppiku.my,,,,,20-03-2024,03:36:07
wownana,Wownana,Muslim Friendly,"https://www.google.com/maps/search/?api=1&query=3.1139669,101.6271951&query_place_id=ChIJ5TfSktxJzDERO6vC0lh-Tlk",Petaling Jaya,Selangor,10,3.1139669,101.6271951,https://www.instagram.com/wownana.co,,,,,20-03-2024,03:36:07
yasumi-coffee,Yasumi Coffee,,"https://www.google.com/maps/search/?api=1&query=3.0994633,101.6247134&query_place_id=ChIJqYqhVtpLzDER1YMEngsvwoI",Petaling Jaya,Selangor,10,3.0994633,101.6247134,https://www.instagram.com/yasumi_coffee,,,,,20-03-2024,03:36:07
kek-dan-kopi,Kek dan Kopi,Muslim Owner,"https://www.google.com/maps/search/?api=1&query=2.9430116,101.5407417&query_place_id=ChIJ2_XCAdOxzTERiQip4MKv8YQ",Telok Panglima Garang,Selangor,10,2.9430116,101.5407417,https://www.instagram.com/kekdankopi,,,,,20-03-2024,03:36:07
terbit,Terbit,"Muslim Owner,  Home,  Early Bird","https://www.google.com/maps/search/?api=1&query=1.5079307,103.757255&query_place_id=ChIJndLQsyZt2jERW02oMJozsV4",Johor Bahru,Johor,1,1.5079307,103.757255,https://www.instagram.com/terbit_____,,,,,20-03-2024,03:36:07
naw-coffee-co-cafe,NAW Coffee & Co. Cafe,"Muslim Owner,  Home","https://www.google.com/maps/search/?api=1&query=1.6693859,103.6375744&query_place_id=ChIJBZK7W2572jER_tJmPc9pNoY",Kulai,Johor,1,1.6693859,103.6375744,https://www.instagram.com/nawcoffeenco,https://www.facebook.com/profile.php?id=100093911221165,,,https://wa.me/60197739560,20-03-2024,03:36:07
sa-tu-kopi-brew,Sa-Tu Kopi & Brew,"Muslim Owner,  Night Owl,  Stall","https://www.google.com/maps/?q=2.7301818724126874,101.98536006420518",Seremban,Negeri Sembilan,5,2.7301818724126874,101.98536006420518,https://www.instagram.com/sa_tukopibrew,,,,https://wa.me/60126490767,20-03-2024,03:36:07
melry-coffee,Melry Coffee,Muslim Owner,"https://www.google.com/maps/search/?api=1&query=3.2021075,101.6883691&query_place_id=ChIJV171g7hHzDER2cgHqnXsrX4",Kuala Lumpur,Kuala Lumpur,14,3.2021075,101.6883691,https://www.instagram.com/melry.coffee,,,,https://wa.me/601154182523,20-03-2024,03:36:07
shark-coffee,Shark Coffee,"Muslim Owner,  Night Owl,  Stall","https://www.google.com/maps/search/?api=1&query=5.515605,100.5474889&query_place_id=ChIJOyfiZKTTSjARCdDor0vUr28",Padang Serai,Kedah,2,5.515605,100.5474889,https://www.instagram.com/sharkcoffee.ps,,,,https://wa.me/601129542874,20-03-2024,03:36:07
malaqa-coffeehouse-pangkin,Malaqa Coffeehouse,Night Owl,"https://www.google.com/maps/?q=2.311362,102.318552",Durian Tunggal,Melaka,4,2.311362,102.318552,https://www.instagram.com/malaqacoffeehouse,https://www.facebook.com/malaqacoffeehouse,,https://www.tiktok.com/malaqacoffee,https://wa.me/60176171673,20-03-2024,03:36:07
ta-oyen-cafe,Ta'Oyen Cafe,"Muslim Owner,  Night Owl,  Home","https://www.google.com/maps/search/?api=1&query=6.4590542,100.1771134&query_place_id=ChIJAXsDex-ZTDARL2M54uIUoYM",Kangar,Perlis,9,6.4590542,100.1771134,https://www.instagram.com/ta_oyen,,,https://www.tiktok.com/@taoyencafe,https://wa.me/60174650069,20-03-2024,03:36:07
atma-coffee,Atma Coffee,,"https://www.google.com/maps/search/?api=1&query=3.1321463,101.6296378&query_place_id=ChIJyxwR769JzDERVDW_D0jZgps",Kuala Lumpur,Kuala Lumpur,14,3.1321463,101.6296378,https://www.instagram.com/atmacoffeetheroastery,,,https://www.tiktok.com/@atmacoffeetheroastery,,20-03-2024,03:36:07
time-teapot-terrace,Tim's Teapot Terrace,,"https://www.google.com/maps/search/?api=1&query=3.2103902,101.7520338&query_place_id=ChIJ7TaVjko4zDERSIzNXlQEAGI",Kuala Lumpur,Selangor,10,3.2103902,101.7520338,https://www.instagram.com/timsteapotterrace,,,,,20-03-2024,03:36:07
the-cranky-beans,The Cranky Beans,,"https://www.google.com/maps/search/?api=1&query=3.210114,101.7517716&query_place_id=ChIJ078Nt3s5zDERqNcUOtjqVSU",Ampang,Kuala Lumpur,14,3.210114,101.7517716,https://www.instagram.com/crankybeans,,,,,20-03-2024,03:36:07
khatulistiwah,Khatulistiwah,,"https://www.google.com/maps/search/?api=1&query=3.2098493,101.7515857&query_place_id=ChIJWabIWTU4zDERx7IaCFJSyCg",Kuala Lumpur,Kuala Lumpur,14,3.2098493,101.7515857,https://www.instagram.com/khatulistiwah,,,,,20-03-2024,03:36:07
bad-cafe,BAD Cafe,,"https://www.google.com/maps/search/?api=1&query=3.2118068,101.7509186&query_place_id=ChIJy4AGvlE5zDERavvTrWzofuM",Kuala Lumpur,Kuala Lumpur,14,3.2118068,101.7509186,https://www.instagram.com/b.a.d_cafe,,,,,20-03-2024,03:36:07
mak-o-mak-cafe,Mak o Mak Cafe,,"https://www.google.com/maps/search/?api=1&query=3.2110724,101.7503638&query_place_id=ChIJUxkGHfc5zDER1HvJK64Js3g",Kuala Lumpur,Selangor,10,3.2110724,101.7503638,https://www.instagram.com/makomakcafe,,,,,20-03-2024,03:36:07
kupi-kahfi,Kupi Kahfi,Muslim Friendly,"https://www.google.com/maps/search/?api=1&query=6.5123783,100.2383187&query_place_id=ChIJrxOAUaqXTDAR3CTuyXxa7PM",Kangar,Perlis,9,6.5123783,100.2383187,,,,,https://wa.me/60192627756,20-03-2024,03:36:07
kaely-specialty-coffee,Kaely Specialty Coffee,,"https://www.google.com/maps/search/?api=1&query=3.213229,101.7550779&query_place_id=ChIJQ46FD-M5zDERXGQ_MHQgc4s",Ampang,Selangor,10,3.213229,101.7550779,https://www.instagram.com/kaely.my,,,,,20-03-2024,03:36:07
cik-jr-cafe,Cik Jr. Cafe,Muslim Owner,"https://www.google.com/maps/search/?api=1&query=2.7850189,101.7768382&query_place_id=ChIJ7cW5hBTBzTERiWJMoIF1_cw",Nilai,Negeri Sembilan,5,2.7850189,101.7768382,https://www.instagram.com/cikjr.cafe,,,,,20-03-2024,03:36:07
atameme,Atameme,Muslim Owner,"https://www.google.com/maps/search/?api=1&query=2.7479968,101.7669072&query_place_id=ChIJRcBjRUXBzTERCIf9iuU9Acs",Bandar Baru Enstek,Negeri Sembilan,5,2.7479968,101.7669072,https://www.instagram.com/atamemecafee,,,,,20-03-2024,03:36:07
early-sip,Early Sip,"Muslim Owner,  Stall","https://www.google.com/maps/search/?api=1&query=3.5699979,101.4344694&query_place_id=ChIJRSyJo7t7zDERAQUh93Oir0w",Kuala Kubu Baru,Selangor,10,3.5699979,101.4344694,https://www.instagram.com/early.sip,,,https://www.tiktok.com/@early.sip,https://wa.me/60173293816,20-03-2024,03:36:07
luho-coffee,Luho Coffee,,"https://www.google.com/maps/search/?api=1&query=3.1053475,101.4671212&query_place_id=ChIJzZvig9BTzDERHKbGOALrLsM",Shah Alam,Selangor,10,3.1053475,101.4671212,https://www.instagram.com/luho.coffee,,,,,20-03-2024,03:36:07
kopi-kamboh,Kopi Kamboh,"Muslim Friendly,  Stall","https://www.google.com/maps/search/?api=1&query=3.3203951,101.8642302&query_place_id=ChIJxc4Ey3I9zDERfQO60OiBRQA",Bentong,Pahang,6,3.3203951,101.8642302,https://www.instagram.com/kopikamboh,,,,https://wa.me/60182483784,20-03-2024,03:36:07
black-bean-coffee,Black Bean Coffee,"Muslim Friendly,  Tourism Malaysia","https://www.google.com/maps/search/?api=1&query=1.5278355,110.3855498&query_place_id=ChIJpbAUdvum-zERpw60SkKNZK8",Kuching,Sarawak,13,1.5278355,110.3855498,,https://www.facebook.com/blackbeancoffeetabuandesa,,,,20-03-2024,03:36:07
cendol-kopi,Cendol & Kopi,"Muslim Owner,  Stall","https://www.google.com/maps/search/?api=1&query=2.748868,101.9480666&query_place_id=ChIJGxzahrDdzTEREnz9uRaJCNk",Seremban,Negeri Sembilan,5,2.748868,101.9480666,https://www.instagram.com/cendoldankopi,,,,,20-03-2024,03:36:07
between-strangers,Between Strangers,,"https://www.google.com/maps/search/?api=1&query=3.1008388,101.6335939&query_place_id=ChIJF4wmImZLzDERiQxXJ8uHXcQ",Petaling Jaya,Selangor,10,3.1008388,101.6335939,https://www.instagram.com/between.strangers,,,,,20-03-2024,03:36:07
galau-coffee,Galau Coffee,"Muslim Friendly,  Stall","https://www.google.com/maps/search/?api=1&query=3.204522,101.4802556&query_place_id=ChIJYaK8zIdbzDER3Qf0XLtT87s",Sungai Buloh,Selangor,10,3.204522,101.4802556,https://www.instagram.com/galau.coffee,,,,,20-03-2024,03:36:07
jilid-enam,Jilid Enam,,"https://www.google.com/maps/search/?api=1&query=3.0832225,101.5078598&query_place_id=ChIJ-dbMulNTzDER6wWmMprH2Zc",Shah Alam,Selangor,10,3.0832225,101.5078598,https://www.instagram.com/jilid_enam,,,,https://wa.me/60136458160,20-03-2024,03:36:07
mizumizu-coffee,Mizumizu Coffee,Muslim Friendly,"https://www.google.com/maps/search/?api=1&query=5.983048999999999,116.0768365&query_place_id=ChIJS-XbhF5pOzIReSjltHuUQfQ",Kota Kinabalu,Sabah,12,5.983048999999999,116.0768365,https://www.instagram.com/mizumizu.coffee,https://www.facebook.com/mizumizu.coffee,,https://www.tiktok.com/@mizumizucoffee,,20-03-2024,03:36:07
fade-by-sb,Fade by SB,,"https://www.google.com/maps/search/?api=1&query=3.0996875,101.6438807&query_place_id=ChIJXVAyQCqLKIMRmXTeioOSGAU",Petaling Jaya,Selangor,10,3.0996875,101.6438807,https://www.instagram.com/fadebysb,,,,,20-03-2024,03:36:07
kopi-kaki-seremban2,Kopi Kaki,Muslim Friendly,"https://www.google.com/maps/search/?api=1&query=2.6930692,101.9034877&query_place_id=ChIJebOeqPbnzTERSoXyKFO5Nsg",Seremban,Negeri Sembilan,5,2.6930692,101.9034877,https://www.instagram.com/kopikaki_,,,,,20-03-2024,03:36:07
kopi-kaki-ampangan,Kopi Kaki,Muslim Friendly,"https://www.google.com/maps/search/?api=1&query=2.5852794,102.1003551&query_place_id=ChIJzUFwCQ0JzjERn5KWbSgTBEc",Rembau,Negeri Sembilan,5,2.5852794,102.1003551,https://www.instagram.com/kopikaki_,,,,,20-03-2024,03:36:07
w-coffee,W Coffee,"Muslim Owner,  Stall","https://www.google.com/maps/search/?api=1&query=1.5468124,103.7109795&query_place_id=ChIJnZhmYBly2jER9fGY91YYmMI",Skudai,Johor,1,1.5468124,103.7109795,https://www.instagram.com/w.coffee.my,,,,https://wa.me/60137904981,20-03-2024,03:36:07
kopi-blok,Kopi Blok,"Muslim Owner,  Night Owl","https://www.google.com/maps/search/?api=1&query=2.9421556,101.6115239&query_place_id=ChIJkfhS2uexzTER_a54L8NrpPc",Puchong,Selangor,10,2.9421556,101.6115239,https://www.instagram.com/kopi_blok,,,https://www.tiktok.com/@kopiblok2021,https://wa.me/601128332437,20-03-2024,03:36:07
kiosk-cafe-ami,Kiosk Cafe Ami,"Muslim Owner,  Home","https://www.google.com/maps/search/?api=1&query=3.8418625,101.8917094&query_place_id=ChIJscdx0V_lyzER1oTRXB2cwyY",Raub,Pahang,6,3.8418625,101.8917094,https://www.instagram.com/kioskcafeami,https://www.facebook.com/kioskcafeami,,https://www.tiktok.com/@kioskcafeami,https://wa.me/601137558379,20-03-2024,03:36:07
secangkir,Secangkir,Muslim Owner,"https://www.google.com/maps/search/?api=1&query=6.1156294,100.3688719&query_place_id=ChIJV4-8DCRFSzARDNReiqyHkFI",Alor Setar,Kedah,2,6.1156294,100.3688719,https://www.instagram.com/secangkir.dapurpadang,,,,https://wa.me/60125877796,20-03-2024,03:36:07
gibi-coffee-kuala-ketil,GIBI Coffee,"Muslim Owner,  Night Owl","https://www.google.com/maps/search/?api=1&query=5.606271,100.640354&query_place_id=ChIJm2kUwp8rtTERS2QIoZiNXCs",Kuala Ketil,Kedah,2,5.606271,100.640354,https://www.instagram.com/gibi.kk,https://www.facebook.com/profile.php?id=100088066263009,,https://www.tiktok.com/@gibi.my,https://wa.me/60134711711,20-03-2024,03:36:07
james-gordon-coffee,James Gordon Coffee,"Muslim Owner,  Night Owl,  Mobile","https://www.google.com/maps/?q=3.215843,101.722882",Kuala Lumpur,Kuala Lumpur,14,3.215843,101.722882,https://www.instagram.com/jamesgordoncoffee,,,https://www.tiktok.com/@jamesgordoncoffee,https://wa.me/60137701157,20-03-2024,03:36:07
yan-beach-cafe,Yan Beach Cafe,Muslim Owner,"https://www.google.com/maps/search/?api=1&query=5.2556961,103.1822678&query_place_id=ChIJERFvOquVtzERhcStp07Mc5I",Marang,Terengganu,11,5.2556961,103.1822678,https://www.instagram.com/yanbeachcafe,https://www.facebook.com/profile.php?id=61550191525028,,,https://wa.me/60139215424,20-03-2024,03:36:07
kopi-siput,Kopi Siput,"Muslim Owner,  Night Owl","https://www.google.com/maps/search/?api=1&query=2.1500531,102.7267445&query_place_id=ChIJ9WaKV87L0TER0IY9VJVgUN0",Pagoh,Johor,1,2.1500531,102.7267445,https://www.instagram.com/siputcoffee_co,,,,https://wa.me/601157535109,20-03-2024,03:36:07
6oz-coffee,6oz Coffee,Muslim Owner,"https://www.google.com/maps/search/?api=1&query=2.2158695,102.2702191&query_place_id=ChIJK7WJR4bv0TERYLjD_MXvcfo",Melaka,Melaka,4,2.2158695,102.2702191,https://www.instagram.com/6oz_coffees,,,https://www.tiktok.com/@6oz.coffee,https://wa.me/60123743007,20-03-2024,03:36:07
flint-coffee-roastery,Flint Coffee & Roastery,,"https://www.google.com/maps/search/?api=1&query=3.1572325,101.6106614&query_place_id=ChIJlSCJy-RPzDERNp0sKP0C8FY",Petaling Jaya,Selangor,10,3.1572325,101.6106614,https://www.instagram.com/flint.kl,,,,,20-03-2024,03:36:07
carlos-coffee,Carlos Coffee,"Muslim Owner,  Early Bird","https://www.google.com/maps/search/?api=1&query=3.8078444,103.3212645&query_place_id=ChIJXQZZluu7yDER8YsL2Lg7Qdg",Kuantan,Pahang,6,3.8078444,103.3212645,https://www.instagram.com/carloscoffee.ktn,https://www.facebook.com/carloscoffee,,https://www.tiktok.com/@carloscoffee.ktn,https://wa.me/60176225768,20-03-2024,03:36:07
kupi-ging-cafe,Kupi Ging Cafe,Muslim Owner,"https://www.google.com/maps/search/?api=1&query=3.0187201,101.5365797&query_place_id=ChIJn5UlbSuzzTERwX8naNR7Dfw",Shah Alam,Selangor,10,3.0187201,101.5365797,https://www.instagram.com/kupiging,https://www.facebook.com/kupiging,,,https://wa.me/60108312387,20-03-2024,03:36:07
heetam-coffee,Heetam Coffee,"Muslim Owner,  Early Bird","https://www.google.com/maps/search/?api=1&query=3.2367886,101.6946682&query_place_id=ChIJhWtYmdZHzDERJ109avNSBoU",Batu Caves,Selangor,10,3.2367886,101.6946682,https://www.instagram.com/heetamcoffee,,,,,20-03-2024,03:36:07
terkohv,TerKohv,"Muslim Owner,  Night Owl","https://www.google.com/maps/search/?api=1&query=2.2038922,102.2496263&query_place_id=ChIJRaNehuzx0TERcbFUVN16aTk",Melaka,Melaka,4,2.2038922,102.2496263,https://www.instagram.com/terkohv,,,https://www.tiktok.com/naimhassanxx,https://wa.me/60102435357,20-03-2024,03:36:07
the-hogeh-coffee-ppd,The Hogeh Coffee,Muslim Friendly,"https://www.google.com/maps/search/?api=1&query=4.2378824,103.3910752&query_place_id=ChIJ6fo8QyyHyDERE4wM9Diqebg",Kemaman,Terengganu,11,4.2378824,103.3910752,https://www.instagram.com/hogehcoffee,,,,https://wa.me/60137171788,20-03-2024,03:36:07
the-cafe-by-country-bread,The Cafe by Country Bread,Muslim Friendly,"https://www.google.com/maps/search/?api=1&query=3.1083994,101.4386243&query_place_id=ChIJjTK09z5TzDER26aKOtDvv88",Klang,Selangor,10,3.1083994,101.4386243,https://www.instagram.com/thecafebycountrybread,,,,https://wa.me/60124449259,20-03-2024,03:36:07
kawa-coffee,Kawa Coffee,,"https://www.google.com/maps/search/?api=1&query=4.392903,113.9815988&query_place_id=ChIJHdojsExJHzIRT-UbK2xiqmA",Miri,Sarawak,13,4.392903,113.9815988,https://www.instagram.com/kawacoffeeofficial,,,,,20-03-2024,03:36:07
kopi-republik,Kopi Republik,"Muslim Owner,  Night Owl","https://www.google.com/maps/search/?api=1&query=2.2032707,102.2487966&query_place_id=ChIJZRDSgNvx0TERo2t1HS_XlkE",Melaka,Melaka,4,2.2032707,102.2487966,https://www.instagram.com/kopirepublikhq,https://www.facebook.com/kopirepublikhq,,https://www.tiktok.com/@kopirepublik,https://wa.me/60126345356,20-03-2024,03:36:07
mika-coffee,MIKA COFFEE,Muslim Owner,"https://www.google.com/maps/search/?api=1&query=6.1267596,102.24716&query_place_id=ChIJg2eg92CvtjERE7EzoCXR2wo",Kota Bharu,Kelantan,3,6.1267596,102.24716,https://www.instagram.com/mikacoffee.co,,,https://www.tiktok.com/@mikacoffee.co,https://wa.me/60179054910,20-03-2024,03:36:07
kopitok,KOPITOK,"Muslim Owner,  Early Bird","https://www.google.com/maps/search/?api=1&query=6.4279858,100.1961053&query_place_id=ChIJWZJEI6WZTDARiBsE0iYSx34",Kangar,Perlis,9,6.4279858,100.1961053,https://www.instagram.com/kopitok,https://www.facebook.com/kopitokmalaysia,https://www.twitter.com/kopitokmalaysia,https://www.tiktok.com/@kopitokmalaysia,https://wa.me/601156639093,20-03-2024,03:36:07
terrase-haus-coffee,Terrase Haus Coffee,Night Owl,"https://www.google.com/maps/?q=3.858361,103.255719",Kuantan,Pahang,6,3.858361,103.255719,https://www.instagram.com/terrasehaus,https://www.facebook.com/profile.php?id=100095617838436,,,,20-03-2024,03:36:07
mountbatten-cafe,Mountbatten Cafe,,"https://www.google.com/maps/search/?api=1&query=3.1482738,101.6976402&query_place_id=ChIJ8eRF_cNJzDERXTfmvp6q6TE",Kuala Lumpur,Kuala Lumpur,14,3.1482738,101.6976402,https://www.instagram.com/mountbattenkl,,,,https://wa.me/60320223013,20-03-2024,03:36:07
top-view-cafe,Top View Cafe,Muslim Owner,"https://www.google.com/maps/search/?api=1&query=5.9462366,100.7866534&query_place_id=ChIJz-ZPjxHItDERHKofmJuB6SA",Sik,Kedah,2,5.9462366,100.7866534,https://www.instagram.com/topview.cafe,,,,,20-03-2024,03:36:07
Rawr,Rawr,,"https://www.google.com/maps/search/?api=1&query=3.156822,101.6941221&query_place_id=ChIJ8YUOv8lJzDERi28OUMWmOtg",Kuala Lumpur,Kuala Lumpur,14,3.156822,101.6941221,https://www.instagram.com/rawrcoffee_,,,,,20-03-2024,03:36:07
kapihappys-melaka,Kapihappys,"Muslim Friendly,  Home","https://www.google.com/maps/search/?api=1&query=2.1997783,102.2458145&query_place_id=ChIJZT6TozDx0TERiBG-GDuXYrE",Melaka,Melaka,4,2.1997783,102.2458145,https://www.instagram.com/kapihappys,https://www.facebook.com/kapihappys,https://www.twitter.com/kapihappys,https://www.tiktok.com/@kapihappys,https://wa.me/60193306300,20-03-2024,03:36:07
coffeepac,CoffeePac,Muslim Owner,"https://www.google.com/maps/search/?api=1&query=2.748868,101.9480666&query_place_id=ChIJGxzahrDdzTEREnz9uRaJCNk",Seremban,Negeri Sembilan,5,2.748868,101.9480666,https://www.instagram.com/coffeepac.hq,,,,https://wa.me/60172418083,20-03-2024,03:36:07
label-hetam-coffee,Label Hetam Coffee,"Muslim Owner,  Night Owl","https://www.google.com/maps/search/?api=1&query=4.0196824,101.9752901&query_place_id=ChIJ46iYEendyzERt3YHxRSJ7VA",Benta,Pahang,6,4.0196824,101.9752901,https://www.instagram.com/label.hetam_,,,,https://wa.me/60129299080,20-03-2024,03:36:07
coffee-beam-cafe,Coffee Beam Cafe,Muslim Owner,"https://www.google.com/maps/search/?api=1&query=3.4087567,101.5922995&query_place_id=ChIJZ_cfoGNpzDERnZ4xnYHQlfM",Rawang,Selangor,10,3.4087567,101.5922995,https://www.instagram.com/coffeebeam.cafe,,,https://www.tiktok.com/@coffeebeam_barista,https://wa.me/60136198087,20-03-2024,03:36:07
sip-melaka,SIP,"Muslim Owner,  Night Owl,  Stall","https://www.google.com/maps/search/?api=1&query=2.9149992,101.6691228&query_place_id=ChIJ7_1enZS3zTERAD--9tYRHcc",Cyberjaya,Selangor,10,2.9149992,101.6691228,https://www.instagram.com/my.sip,https://www.facebook.com/Sip.Popup,,https://www.tiktok.com/@sip.my,https://wa.me/60126344773,20-03-2024,03:36:07
aico-cafe,Aico Cafe,,"https://www.google.com/maps/search/?api=1&query=3.1594575,101.7003425&query_place_id=ChIJZaxusGdJzDERIRxi7w4IL6Y",Kuala Lumpur,Kuala Lumpur,14,3.1594575,101.7003425,https://www.instagram.com/aicocafe,,,,,20-03-2024,03:36:07
jing-si-books-and-cafe,Jing-Si Books and Cafe,,"https://www.google.com/maps/search/?api=1&query=1.5550812,110.3562096&query_place_id=ChIJSfvVScCn-zERZx6juaBtyJY",Kuching,Sarawak,13,1.5550812,110.3562096,https://www.instagram.com/bookmark.kch_cafe,https://www.facebook.com/cafe.restaurant.kch,,,,20-03-2024,03:36:07
caffeinated,caffeinated.,"Muslim Owner,  Night Owl,  Stall","https://www.google.com/maps/search/?api=1&query=4.6540007,103.4223468&query_place_id=ChIJ18lcNJoNyDERpbpxfRO9ZYE",Paka,Terengganu,11,4.6540007,103.4223468,https://www.instagram.com/caffeinated.drink,,,,https://wa.me/60177143534,20-03-2024,03:36:07
moonshine-bakehouse,Moonshine Bakehouse,,"https://www.google.com/maps/search/?api=1&query=5.444285799999999,100.3228182&query_place_id=ChIJyesYuOTDSjARHKRie4WWats",George Town,Pulau Pinang,7,5.444285799999999,100.3228182,https://www.instagram.com/moonshine_bakehouse,,,,,20-03-2024,03:36:07
st-presso-coffee,St.Presso Coffee,Muslim Friendly,"https://www.google.com/maps/search/?api=1&query=5.3222222,100.2827778&query_place_id=ChIJWQHqtWzASjARqM8tb7Mc3T0",Bayan Lepas,Pulau Pinang,7,5.3222222,100.2827778,https://www.instagram.com/stpressocoffee,https://www.facebook.com/stpressocoffee,,,https://wa.me/60164823568,20-03-2024,03:36:07
sugar-honey-bites-cafe,Sugar Honey Bites Cafe,"Muslim Owner,  Night Owl","https://www.google.com/maps/search/?api=1&query=2.944173,101.5282651&query_place_id=ChIJzQXMwmuxzTEROYqeCLs3VmE",Telok Panglima Garang,Selangor,10,2.944173,101.5282651,https://www.instagram.com/sugarhoneybitescafe,,,https://www.tiktok.com/@sugarhoneybitescafe,https://wa.me/60108814669,20-03-2024,03:36:07
wildtrak-kopi-serdang-station,Wildtrak Kopi,"Muslim Owner,  Home,  Early Bird","https://www.google.com/maps/search/?api=1&query=3.0321887,101.7044344&query_place_id=ChIJrxNhQ1q1zTERf85b-zz2tDg",Seri Kembangan,Selangor,10,3.0321887,101.7044344,https://www.instagram.com/wildtrak_kopi_serdangstation,https://www.facebook.com/wildtrakkopiserdangstation,,https://www.tiktok.com/@wildtrakkopiserdang,https://wa.me/60183224193,20-03-2024,03:36:07
filokopi,Filokopi,"Muslim Owner,  Night Owl","https://www.google.com/maps/search/?api=1&query=5.3857078,100.4044842&query_place_id=ChIJe-hzWp_HSjARtikMzXSl8B4",Perai,Pulau Pinang,7,5.3857078,100.4044842,https://www.instagram.com/_filokopi,https://www.facebook.com/profile.php?id=100093830071140,,,,20-03-2024,03:36:07
wonders-cafe,Wonders Cafe,Muslim Friendly,"https://www.google.com/maps/search/?api=1&query=3.1140054,101.6401911&query_place_id=ChIJA_GfPRZJzDERjzsaT8ELKsI",Petaling Jaya,Selangor,10,3.1140054,101.6401911,https://www.instagram.com/wonders_cafe_my,https://www.facebook.com/wonderscafemy,,,,20-03-2024,03:36:07
asof-coffee,ASOF Coffee,,"https://www.google.com/maps/search/?api=1&query=3.1382845,101.6287755&query_place_id=ChIJPTwmTD5JzDERSzZLU5Tjkx0",Kuala Lumpur,Kuala Lumpur,14,3.1382845,101.6287755,https://www.instagram.com/themeatstore.ttdi,,,,,20-03-2024,03:36:07
slow-wood-coffee,Slow Wood Coffee,,"https://www.google.com/maps/search/?api=1&query=3.1699203,101.6557806&query_place_id=ChIJwcXXrupJzDERBawdinm1VOA",Kuala Lumpur,Kuala Lumpur,14,3.1699203,101.6557806,https://www.instagram.com/slowwood.coffee,,,,,20-03-2024,03:36:07
kisar-cafe,KiSAR Cafe,Muslim Owner,"https://www.google.com/maps/search/?api=1&query=5.4274175,101.127824&query_place_id=ChIJu5_7z2oRtTERprsmGxVPNGw",Gerik,Perak,8,5.4274175,101.127824,https://www.instagram.com/kisarcafe,,,https://www.tiktok.com/kisarcafe,https://wa.me/60125827059,20-03-2024,03:36:07
oddday,Oddday,,"https://www.google.com/maps/search/?api=1&query=3.1267524,101.6172548&query_place_id=ChIJZ4xBjyFJzDERrW3lbQTaApw",Petaling Jaya,Selangor,10,3.1267524,101.6172548,https://www.instagram.com/oddday_pj,,,,,20-03-2024,03:36:07
traffic-bean,Traffic Bean,,"https://www.google.com/maps/search/?api=1&query=5.4222546,100.3398539&query_place_id=ChIJu642S-_DSjARTP1CUdeArOY",George Town,Pulau Pinang,7,5.4222546,100.3398539,https://www.instagram.com/trafficbean.my,,,,,20-03-2024,03:36:07
unfold-cafe,Unfold Cafe,,"https://www.google.com/maps/search/?api=1&query=3.081863,101.6010883&query_place_id=ChIJne-AgZ5NzDERfObwV5qp1-U",Petaling Jaya,Selangor,10,3.081863,101.6010883,https://www.instagram.com/unfold.tgtinlife,,,,,20-03-2024,03:36:07
hasanah-coffee-shop,Hasanah Coffee Shop,Muslim Owner,"https://www.google.com/maps/search/?api=1&query=2.9597989,101.7528773&query_place_id=ChIJK7aCNCr1QkQRoiuGTOQd9-U",Bandar Baru Bangi,Selangor,10,2.9597989,101.7528773,https://www.instagram.com/brewdatcoffee,,,,,20-03-2024,03:36:07
kopi-hujung-minggu,Kopi Hujung Minggu,"Muslim Owner,  Mobile","https://www.google.com/maps/search/?api=1&query=3.0963838,101.5367456&query_place_id=ChIJkzSLsZBNzDER7kgI4eYDWPA",Shah Alam,Selangor,10,3.0963838,101.5367456,https://www.instagram.com/kopihujungminggu,,,,,20-03-2024,03:36:07
caffea-cafe,Caffea Cafe,Muslim Owner,"https://www.google.com/maps/search/?api=1&query=4.248668299999999,103.4245701&query_place_id=ChIJxWVvXlt_yDERInrhrVW6SwU",Kemaman,Terengganu,11,4.248668299999999,103.4245701,https://www.instagram.com/caffea.cafekemaman,https://www.facebook.com/profile.php?id=100066619702192,,,,20-03-2024,03:36:07
pekan-kopi,Pekan Kopi,"Muslim Owner,  Early Bird","https://www.google.com/maps/search/?api=1&query=2.2045703,102.2252331&query_place_id=ChIJ6b_UR0fx0TERTzoA_SoubeU",Melaka,Melaka,4,2.2045703,102.2252331,https://www.instagram.com/pekan_kopi,,,,,20-03-2024,03:36:07
caffeine-hut,Caffeine Hut,"Muslim Owner,  Early Bird","https://www.google.com/maps/search/?api=1&query=4.511908,103.4433843&query_place_id=ChIJm9IoVPVxyDERuclpgYV7UUw",Kemaman,Terengganu,11,4.511908,103.4433843,https://www.instagram.com/thecaffeinehut,,,,https://wa.me/60194927017,20-03-2024,03:36:07
belinjo,Belinjo,Muslim Owner,"https://www.google.com/maps/search/?api=1&query=3.1235833,101.4697365&query_place_id=ChIJn6Oy-CVRzDERutiRiKYF3Mo",Shah Alam,Selangor,10,3.1235833,101.4697365,https://www.instagram.com/belinjo.my,,,,https://wa.me/60149822993,20-03-2024,03:36:07
the-great-coffee-club,The Great Coffee Club,"Muslim Owner,  Night Owl","https://www.google.com/maps/search/?api=1&query=3.0755839,101.5513462&query_place_id=ChIJkdlp9XtNzDEReFi228ac1Ms",Shah Alam,Selangor,10,3.0755839,101.5513462,https://www.instagram.com/thegreatcoffeeclub,,,https://www.tiktok.com/@thegreatcoffeeub?_t=8b2ZAxAV8uG&_r=1,,20-03-2024,03:36:07
white-sand-cafe-shah-alam,White Sand Cafe,,"https://www.google.com/maps/search/?api=1&query=3.1094464,101.4602486&query_place_id=ChIJucjDjjlTzDERLpt75ImTXVY",Shah Alam,Selangor,10,3.1094464,101.4602486,https://www.instagram.com/whitesand.scm,https://www.facebook.com/whitesandcafe,,,https://wa.me/60172008211,20-03-2024,03:36:07
whitemori,Whitemori,,"https://www.google.com/maps/search/?api=1&query=3.0895061,101.4496307&query_place_id=ChIJDVTRPAdTzDER_RRCvcvoTdc",Klang,Selangor,10,3.0895061,101.4496307,https://www.instagram.com/whitemori_bakinglab,,,,https://wa.me/60162456178,20-03-2024,03:36:07
grounded-zone,Grounded Zone,,"https://www.google.com/maps/search/?api=1&query=3.0896463,101.4482064&query_place_id=ChIJL4Z-sipTzDERhFFvo6FF8Wg",Klang,Selangor,10,3.0896463,101.4482064,https://www.instagram.com/grounded.zone,,,,https://wa.me/601131276786,20-03-2024,03:36:07
dodoo,Dodoo KL,,"https://www.google.com/maps/search/?api=1&query=3.1432151,101.6966177&query_place_id=ChIJF9vClg9JzDEROmZLFClX7BI",Kuala Lumpur,Kuala Lumpur,14,3.1432151,101.6966177,https://www.instagram.com/dodoo_kl,https://www.facebook.com/dodookl,,,https://wa.me/60129845966,20-03-2024,03:36:07
baking-khaki,Baking Khaki,Muslim Friendly,"https://www.google.com/maps/search/?api=1&query=4.876935599999999,100.7288303&query_place_id=ChIJkXfHaZmvyjER9j-RSUWfUUw",Taiping,Perak,8,4.876935599999999,100.7288303,https://www.instagram.com/bakingkhaki,https://www.facebook.com/Baking Khaki,,,https://wa.me/601156818180,20-03-2024,03:36:07
karya-bukan-zenopy,Karya Bulan,Muslim Owner,"https://www.google.com/maps/search/?api=1&query=3.007617,101.6684123&query_place_id=ChIJSRnC1xy1zTER3ockJJOBpwg",Seri Kembangan,Selangor,10,3.007617,101.6684123,https://www.instagram.com/karya.bulan,https://www.facebook.com/profile.php?id=100080154157859&mibextid=LQQJ4d,,,https://wa.me/601172344961,20-03-2024,03:36:07
summer-palace,Summer Palace,"Muslim Owner,  Night Owl,  Home","https://www.google.com/maps/search/?api=1&query=3.0505094,101.5383086&query_place_id=ChIJd83HD6VXzDERqbo-P9T1AIg",Shah Alam,Selangor,10,3.0505094,101.5383086,https://www.instagram.com/sxmmerpalace,,,https://www.tiktok.com/@sxmmerpalace,https://wa.me/60194410730,20-03-2024,03:36:07
drip-plop,Drip Plop,"Muslim Owner,  Night Owl","https://www.google.com/maps/search/?api=1&query=5.644192299999999,100.4898177&query_place_id=ChIJHwLq1aopSzAR2ZFzmljG0TM",Sungai Petani,Kedah,2,5.644192299999999,100.4898177,https://www.instagram.com/drip.plop,,,,https://wa.me/60134083215,20-03-2024,03:36:07
kalico-coffee,Kalico Coffee,,"https://www.google.com/maps/search/?api=1&query=3.1852929,101.7034899&query_place_id=ChIJ8cZCC_5JzDERb1udrm9tjn4",Kuala Lumpur,Kuala Lumpur,14,3.1852929,101.7034899,https://www.instagram.com/kalico.coffee,,,,https://wa.me/601111318797,20-03-2024,03:36:07
2-acres-cafe,2 Acres Cafe,,"https://www.google.com/maps/search/?api=1&query=5.3953601,100.2177438&query_place_id=ChIJCWDTNMvpSjAR_hryWswxRBs",Balik Pulau,Pulau Pinang,7,5.3953601,100.2177438,https://www.instagram.com/_2acres_,,,,https://wa.me/60172006128,20-03-2024,03:36:07
genggua-kopi-rumah-makan-rendang-tok-yeop,GengGua Kopi,"Muslim Owner,  Night Owl","https://www.google.com/maps/search/?api=1&query=4.7728896,100.9178582&query_place_id=ChIJjZ9DdOq9yjER1SaM-gXv2_Q",Kuala Kangsar,Perak,8,4.7728896,100.9178582,https://www.instagram.com/genggua.kopi,https://www.facebook.com/GengGua.Kopi,,https://www.tiktok.com/@gengguakopi,https://wa.me/601165652867,20-03-2024,03:36:07
by-the-way,By The Way,"Muslim Owner,  Night Owl","https://www.google.com/maps/search/?api=1&query=4.2305082,103.4213763&query_place_id=ChIJ5_XQ3-GHyDERPTxnsrim9zA",Chukai,Terengganu,11,4.2305082,103.4213763,https://www.instagram.com/bythewaybytexasstation,,,,https://wa.me/60193497260,20-03-2024,03:36:07
kaliko-coffee,Kaliko Coffee,"Muslim Owner,  Early Bird","https://www.google.com/maps/search/?api=1&query=3.0477767,101.5926933&query_place_id=ChIJ3yBTaslNzDERh7ATvO7Ug5o",Subang Jaya,Selangor,10,3.0477767,101.5926933,https://www.instagram.com/kaliko.coffee,https://www.facebook.com/kaliko.coffee,,,https://wa.me/60193660894,20-03-2024,03:36:07
wildtrak-kopi-seremban-2-station,Wildtrak Kopi,"Muslim Owner,  Night Owl","https://www.google.com/maps/search/?api=1&query=2.6818464,101.9113486&query_place_id=ChIJE0nC9sbnzTERm0mrXKO_QtA",Seremban,Negeri Sembilan,5,2.6818464,101.9113486,https://www.instagram.com/wildtrak_kopi_s2station,,,,https://wa.me/60134091312,20-03-2024,03:36:07
coffea-coffee-eco-ardence,Coffea Coffee,Night Owl,"https://www.google.com/maps/search/?api=1&query=3.0843809,101.5233285&query_place_id=ChIJkQ8ZlB5TzDERL3eOlaXXLBM",Shah Alam,Selangor,10,3.0843809,101.5233285,https://www.instagram.com/coffeacoffeemy,https://www.facebook.com/CoffeaCoffeeMY,,,,20-03-2024,03:36:07
lujayns-coffee,Lujayn's Coffee,Night Owl,"https://www.google.com/maps/search/?api=1&query=3.2097771,101.7441621&query_place_id=ChIJp3y3jqs5zDER5YKqum1wF3U",Kuala Lumpur,Kuala Lumpur,14,3.2097771,101.7441621,https://www.instagram.com/lujayns_coffee,,,,,20-03-2024,03:36:07
riss-coffee,Riss Coffee,"Muslim Owner,  Home,  Stall","https://www.google.com/maps/search/?api=1&query=3.5198176,103.3953094&query_place_id=ChIJU5tsCJpRzzER8kVZpOIIyRs",Pekan,Pahang,6,3.5198176,103.3953094,https://www.instagram.com/riss_coffee,https://www.facebook.com/profile.php?id=100054654330231,,https://www.tiktok.com/@rissukakopi,https://wa.me/601162625383,20-03-2024,03:36:07
kofi-penyu,Kofi Penyu,"Muslim Owner,  Night Owl","https://www.google.com/maps/search/?api=1&query=5.313503799999999,103.1315549&query_place_id=ChIJ6RxX3x-9tzERY1_DgN2kyvE",Kuala Terengganu,Terengganu,11,5.313503799999999,103.1315549,https://www.instagram.com/kofipenyu.my,https://www.facebook.com/kofipenyu.my,,,https://wa.me/60105675164,20-03-2024,03:36:07
lakeside,Lakeside,"Muslim Friendly,  Early Bird","https://www.google.com/maps/search/?api=1&query=2.7569766,101.7312403&query_place_id=ChIJJ3wDtIq_zTERLeLsfL7tPug",Sepang,Selangor,10,2.7569766,101.7312403,https://www.instagram.com/lakeside_sic,,,https://www.tiktok.com/@lakeside_sic_sepang,https://wa.me/60123602595,20-03-2024,03:36:07
brewhaus,Brewhus,,"https://www.google.com/maps/search/?api=1&query=2.7314889,101.9876731&query_place_id=ChIJddmBsTvfzTERqCH_T3chH50",Seremban,Negeri Sembilan,5,2.7314889,101.9876731,https://www.instagram.com/brewhaus.my,,,,,20-03-2024,03:36:07
apam-kopi,Apam & Kopi,"Muslim Owner,  Stall","https://www.google.com/maps/search/?api=1&query=3.0730597,101.543412&query_place_id=ChIJD5vEDWVNzDER29JXnuBwoMw",Shah Alam,Selangor,10,3.0730597,101.543412,https://www.instagram.com/apamdankopi,,,,,20-03-2024,03:36:07
warung-ngarai,Warung Ngarai,"Muslim Owner,  Night Owl,  Home,  Early Bird","https://www.google.com/maps/search/?api=1&query=5.550359900000001,100.901282&query_place_id=ChIJZ9lBbYwhtTERA9QT_QIsyMc",Kupang,Kedah,2,5.550359900000001,100.901282,https://www.instagram.com/warungngarai,,,https://www.tiktok.com/@warungngarai,https://wa.me/60134446433,20-03-2024,03:36:07
thedaniellos-street-cafe,Thedaniellos Street Cafe,"Muslim Owner,  Night Owl","https://www.google.com/maps/search/?api=1&query=3.816769,103.3385835&query_place_id=ChIJ0zTPssO6yDERPgHVinvZSUg",Kuantan,Pahang,6,3.816769,103.3385835,https://www.instagram.com/thedaniellos,https://www.facebook.com/thedaniellos,,https://www.tiktok.com/@thedaniellos,https://wa.me/60169633637,20-03-2024,03:36:07
malaqa-coffeehouse,Malaqa Coffeehouse,"Muslim Owner,  Night Owl","https://www.google.com/maps/search/?api=1&query=2.1902605,102.2472605&query_place_id=ChIJX2fCq3Px0TERXqVXSbtx5SA",Melaka,Melaka,4,2.1902605,102.2472605,https://www.instagram.com/malaqacoffeehouse,,,https://www.tiktok.com/@malaqacoffeehouse,https://wa.me/60176171673,20-03-2024,03:36:07
pahit-manes,Pahit Manes,"Muslim Owner,  Night Owl,  Mobile,  Stall","https://www.google.com/maps/search/?api=1&query=1.9322315,102.8535124&query_place_id=ChIJL3c2JvFT0DEReh0QUDT4Dd8",Parit Sulong,Johor,1,1.9322315,102.8535124,https://www.instagram.com/pahitmanesmc,,,https://www.tiktok.com/@pahitmanesmc,https://wa.me/60105565141,20-03-2024,03:36:07
dream-coffee-pastry,Dream Coffee & Pastry,"Muslim Friendly,  Night Owl","https://www.google.com/maps/search/?api=1&query=6.130580699999999,102.2430701&query_place_id=ChIJ26Z41I2vtjERHYVows373tM",Kota Bharu,Kelantan,3,6.130580699999999,102.2430701,https://www.instagram.com/dream.coffee_kbr,https://www.facebook.com/profile.php?id=100081051474884,,,,20-03-2024,03:36:07
mind-coffee-roastery,Mind Coffee Roastery,Night Owl,"https://www.google.com/maps/search/?api=1&query=6.1183124,100.3647831&query_place_id=ChIJXxF3MJZDSzAR3ekN45Jshws",Alor Setar,Kedah,2,6.1183124,100.3647831,https://www.instagram.com/mindcoffeeroastery,,,,,20-03-2024,03:36:07
coffeecino-barista,Coffeecino Barista,Muslim Owner,"https://www.google.com/maps/search/?api=1&query=2.2440226,102.2568208&query_place_id=ChIJtyHMqv7v0TERwkNQ98urjbw",Melaka,Melaka,4,2.2440226,102.2568208,https://www.instagram.com/coffeecinobarista,https://www.facebook.com/coffeecinobarista,,https://www.tiktok.com/@coffeecinobarista,https://wa.me/60102293145,20-03-2024,03:36:07
gadis-kopi,Gadis Kopi,"Muslim Owner,  Night Owl,  Home","https://www.google.com/maps/search/?api=1&query=2.5852794,102.1003551&query_place_id=ChIJzUFwCQ0JzjERn5KWbSgTBEc",Rembau,Negeri Sembilan,5,2.5852794,102.1003551,https://www.instagram.com/gadiskopi.my,,,,,20-03-2024,03:36:07
cafe-goma,Cafe Goma,"Muslim Owner,  Night Owl,  Home","https://www.google.com/maps/search/?api=1&query=2.5852794,102.1003551&query_place_id=ChIJzUFwCQ0JzjERn5KWbSgTBEc",Rembau,Negeri Sembilan,5,2.5852794,102.1003551,https://www.instagram.com/cafegomarembau,,,https://www.tiktok.com/@gomacaferembau,,20-03-2024,03:36:07
bal-kopi,BAL.kopi,"Muslim Owner,  Night Owl,  Stall","https://www.google.com/maps/search/?api=1&query=3.0114645,101.6057327&query_place_id=ChIJleEF62ezzTER7gg57IGoLmg",Puchong,Selangor,10,3.0114645,101.6057327,https://www.instagram.com/bal.kopi,,,,,20-03-2024,03:36:07
kedai-kofee,Kedai Kofee,"Muslim Owner,  Night Owl,  Stall","https://www.google.com/maps/search/?api=1&query=1.852431,103.0895065&query_place_id=ChIJKUtevRlf0DER_sWA3vmQSjg",Parit Raja,Johor,1,1.852431,103.0895065,https://www.instagram.com/kedaikofee_my,,,,https://wa.me/60193149547,20-03-2024,03:36:07
gherobox-coffee,Gherobox Coffee,"Muslim Owner,  Stall","https://www.google.com/maps/search/?api=1&query=5.8385969,102.3796381&query_place_id=ChIJhx1AebCTtjERTNglnNjFhiE",Pasir Puteh,Kelantan,3,5.8385969,102.3796381,,,,,https://wa.me/60164944613,20-03-2024,03:36:07
burn-cafe,Burn Cafe,Muslim Owner,"https://www.google.com/maps/search/?api=1&query=5.279499299999999,103.1422954&query_place_id=ChIJfcQhUgm_tzERGZ1MresnVqc",Kuala Terengganu,Terengganu,11,5.279499299999999,103.1422954,https://www.instagram.com/burncafehq,,,,https://wa.me/60122494926,20-03-2024,03:36:07
d-syaz-slow-bar,D'Syaz Slow Bar,"Muslim Owner,  Night Owl,  Home","https://www.google.com/maps/search/?api=1&query=6.1859861,102.263639&query_place_id=ChIJn__fYQSytjERn0c-HBFENjs",Kota Bharu,Kelantan,3,6.1859861,102.263639,https://www.instagram.com/dsyaz.slowbar,,,https://www.tiktok.com/@dsyazslowbar,https://wa.me/60179603850,20-03-2024,03:36:07
mim-nun-kopi,Mim Nun Kopi,Muslim Owner,"https://www.google.com/maps/search/?api=1&query=5.3296538,103.136681&query_place_id=ChIJYahdQqm_tzERBFNSDqDhdmM",Kuala Terengganu,Terengganu,11,5.3296538,103.136681,https://www.instagram.com/mimnunkopi,https://www.facebook.com/mimnunkopi,,,https://wa.me/60126009264,20-03-2024,03:36:07
breathtaking-cafe,Breathtaking Cafe,Muslim Owner,"https://www.google.com/maps/search/?api=1&query=3.0078104,101.805838&query_place_id=ChIJiY0n3D_NzTERakW_7OKn03k",Kajang,Selangor,10,3.0078104,101.805838,https://www.instagram.com/breathtakingcafe,,,https://www.tiktok.com/@breathtakingcafe,,20-03-2024,03:36:07
25-detik,25 Detik,,"https://www.google.com/maps/search/?api=1&query=6.231722,100.4199228&query_place_id=ChIJUexGTNtZSzAR93OMvy0Pkls",Jitra,Kedah,2,6.231722,100.4199228,https://www.instagram.com/duapuluhlima.detik,,,,,20-03-2024,03:36:07
maxii-coffee,Maxii Coffee,"Muslim Owner,  Night Owl","https://www.google.com/maps/search/?api=1&query=6.1329506,102.237131&query_place_id=ChIJjzwuUcmvtjERVLk8xNAqr6o",Kota Bharu,Kelantan,3,6.1329506,102.237131,https://www.instagram.com/maxii_coffee,,,,,20-03-2024,03:36:07
